{
  "city": "Berlin",
  "operator": "BVG U-Bahn / S-Bahn Berlin / BVG Tram",
  "generatedAt": "2026-04-26T16:18:24Z",
  "source": "VBB GTFS feed",
  "lines": [
    {
      "id": "U1",
      "shortName": "U1",
      "longName": "U1",
      "color": "#7DAD4C",
      "textColor": "#FFFFFF",
      "mode": 1,
      "operator": "BVG U-Bahn",
      "stations": [
        {
          "id": "de:11000:900120004",
          "name": "S+U Warschauer Str. (Berlin)",
          "lat": 52.505765,
          "lng": 13.449159
        },
        {
          "id": "de:11000:900014102",
          "name": "U Schlesisches Tor (Berlin)",
          "lat": 52.501147,
          "lng": 13.441791
        },
        {
          "id": "de:11000:900014101",
          "name": "U Görlitzer Bahnhof (Berlin)",
          "lat": 52.499145,
          "lng": 13.427145
        },
        {
          "id": "de:11000:900013102",
          "name": "U Kottbusser Tor (Berlin)",
          "lat": 52.499047,
          "lng": 13.417748
        },
        {
          "id": "de:11000:900013103",
          "name": "U Prinzenstr. (Berlin)",
          "lat": 52.498327,
          "lng": 13.406551
        },
        {
          "id": "de:11000:900012103",
          "name": "U Hallesches Tor (Berlin)",
          "lat": 52.497774,
          "lng": 13.39176
        },
        {
          "id": "de:11000:900017104",
          "name": "U Möckernbrücke (Berlin)",
          "lat": 52.498944,
          "lng": 13.383256
        },
        {
          "id": "de:11000:900017103",
          "name": "U Gleisdreieck (Berlin)",
          "lat": 52.499587,
          "lng": 13.374293
        },
        {
          "id": "de:11000:900005201",
          "name": "U Kurfürstenstr. (Berlin)",
          "lat": 52.499778,
          "lng": 13.362857
        },
        {
          "id": "de:11000:900056102",
          "name": "U Nollendorfplatz (Berlin)",
          "lat": 52.499644,
          "lng": 13.353825
        },
        {
          "id": "de:11000:900056101",
          "name": "U Wittenbergplatz (Berlin)",
          "lat": 52.502109,
          "lng": 13.342561
        },
        {
          "id": "de:11000:900023203",
          "name": "U Kurfürstendamm (Berlin)",
          "lat": 52.503763,
          "lng": 13.331419
        },
        {
          "id": "de:11000:900023301",
          "name": "U Uhlandstr. (Berlin)",
          "lat": 52.502742,
          "lng": 13.326233
        }
      ]
    },
    {
      "id": "U2",
      "shortName": "U2",
      "longName": "U2",
      "color": "#DA421E",
      "textColor": "#FFFFFF",
      "mode": 1,
      "operator": "BVG U-Bahn",
      "stations": [
        {
          "id": "de:11000:900130002",
          "name": "S+U Pankow (Berlin)",
          "lat": 52.567281,
          "lng": 13.412279
        },
        {
          "id": "de:11000:900130011",
          "name": "U Vinetastr. (Berlin)",
          "lat": 52.559517,
          "lng": 13.41377
        },
        {
          "id": "de:11000:900110001",
          "name": "S+U Schönhauser Allee (Berlin)",
          "lat": 52.549336,
          "lng": 13.415138
        },
        {
          "id": "de:11000:900110006",
          "name": "U Eberswalder Str. (Berlin)",
          "lat": 52.541085,
          "lng": 13.41216
        },
        {
          "id": "de:11000:900110005",
          "name": "U Senefelderplatz (Berlin)",
          "lat": 52.532622,
          "lng": 13.412625
        },
        {
          "id": "de:11000:900100016",
          "name": "U Rosa-Luxemburg-Platz (Berlin)",
          "lat": 52.528191,
          "lng": 13.410405
        },
        {
          "id": "de:11000:900100003",
          "name": "S+U Alexanderplatz Bhf (Berlin)",
          "lat": 52.521512,
          "lng": 13.411267
        },
        {
          "id": "de:11000:900100015",
          "name": "U Klosterstr. (Berlin)",
          "lat": 52.517229,
          "lng": 13.412455
        },
        {
          "id": "de:11000:900100014",
          "name": "U Märkisches Museum (Berlin)",
          "lat": 52.512007,
          "lng": 13.408767
        },
        {
          "id": "de:11000:900100013",
          "name": "U Spittelmarkt (Berlin)",
          "lat": 52.511411,
          "lng": 13.402031
        },
        {
          "id": "de:11000:900100012",
          "name": "U Hausvogteiplatz (Berlin)",
          "lat": 52.513361,
          "lng": 13.395346
        },
        {
          "id": "de:11000:900100011",
          "name": "U Stadtmitte (Berlin)",
          "lat": 52.511495,
          "lng": 13.389719
        },
        {
          "id": "de:11000:900100010",
          "name": "U Anton-Wilhelm-Amo-Str. (Berlin)",
          "lat": 52.511519,
          "lng": 13.383798
        },
        {
          "id": "de:11000:900100020",
          "name": "S+U Potsdamer Platz Bhf (Berlin)",
          "lat": 52.509358,
          "lng": 13.376547
        },
        {
          "id": "de:11000:900005252",
          "name": "U Mendelssohn-Bartholdy-Park (Berlin)",
          "lat": 52.503185,
          "lng": 13.374679
        },
        {
          "id": "de:11000:900017103",
          "name": "U Gleisdreieck (Berlin)",
          "lat": 52.499587,
          "lng": 13.374293
        },
        {
          "id": "de:11000:900056104",
          "name": "U Bülowstr. (Berlin)",
          "lat": 52.497627,
          "lng": 13.362456
        },
        {
          "id": "de:11000:900056102",
          "name": "U Nollendorfplatz (Berlin)",
          "lat": 52.499644,
          "lng": 13.353825
        },
        {
          "id": "de:11000:900056101",
          "name": "U Wittenbergplatz (Berlin)",
          "lat": 52.502109,
          "lng": 13.342561
        },
        {
          "id": "de:11000:900023201",
          "name": "S+U Zoologischer Garten Bhf (Berlin)",
          "lat": 52.506921,
          "lng": 13.332707
        },
        {
          "id": "de:11000:900023101",
          "name": "U Ernst-Reuter-Platz (Berlin)",
          "lat": 52.511582,
          "lng": 13.322581
        },
        {
          "id": "de:11000:900022201",
          "name": "U Deutsche Oper (Berlin)",
          "lat": 52.511827,
          "lng": 13.30942
        },
        {
          "id": "de:11000:900024201",
          "name": "U Bismarckstr. (Berlin)",
          "lat": 52.511543,
          "lng": 13.305335
        },
        {
          "id": "de:11000:900022101",
          "name": "U Sophie-Charlotte-Platz (Berlin)",
          "lat": 52.51097,
          "lng": 13.297463
        },
        {
          "id": "de:11000:900026202",
          "name": "U Kaiserdamm (Berlin)",
          "lat": 52.509985,
          "lng": 13.281695
        },
        {
          "id": "de:11000:900026201",
          "name": "U Theodor-Heuss-Platz (Berlin)",
          "lat": 52.509798,
          "lng": 13.272977
        },
        {
          "id": "de:11000:900026101",
          "name": "U Neu-Westend (Berlin)",
          "lat": 52.516409,
          "lng": 13.25991
        },
        {
          "id": "de:11000:900025203",
          "name": "U Olympia-Stadion (Berlin)",
          "lat": 52.517048,
          "lng": 13.2505
        },
        {
          "id": "de:11000:900025202",
          "name": "U Ruhleben (Berlin)",
          "lat": 52.525587,
          "lng": 13.241902
        }
      ]
    },
    {
      "id": "U3",
      "shortName": "U3",
      "longName": "U3",
      "color": "#16683D",
      "textColor": "#FFFFFF",
      "mode": 1,
      "operator": "BVG U-Bahn",
      "stations": [
        {
          "id": "de:11000:900120004",
          "name": "S+U Warschauer Str. (Berlin)",
          "lat": 52.505765,
          "lng": 13.449159
        },
        {
          "id": "de:11000:900014102",
          "name": "U Schlesisches Tor (Berlin)",
          "lat": 52.501147,
          "lng": 13.441791
        },
        {
          "id": "de:11000:900014101",
          "name": "U Görlitzer Bahnhof (Berlin)",
          "lat": 52.499145,
          "lng": 13.427145
        },
        {
          "id": "de:11000:900013102",
          "name": "U Kottbusser Tor (Berlin)",
          "lat": 52.499047,
          "lng": 13.417748
        },
        {
          "id": "de:11000:900013103",
          "name": "U Prinzenstr. (Berlin)",
          "lat": 52.498327,
          "lng": 13.406551
        },
        {
          "id": "de:11000:900012103",
          "name": "U Hallesches Tor (Berlin)",
          "lat": 52.497774,
          "lng": 13.39176
        },
        {
          "id": "de:11000:900017104",
          "name": "U Möckernbrücke (Berlin)",
          "lat": 52.498944,
          "lng": 13.383256
        },
        {
          "id": "de:11000:900017103",
          "name": "U Gleisdreieck (Berlin)",
          "lat": 52.499587,
          "lng": 13.374293
        },
        {
          "id": "de:11000:900005201",
          "name": "U Kurfürstenstr. (Berlin)",
          "lat": 52.499778,
          "lng": 13.362857
        },
        {
          "id": "de:11000:900056102",
          "name": "U Nollendorfplatz (Berlin)",
          "lat": 52.499644,
          "lng": 13.353825
        },
        {
          "id": "de:11000:900056101",
          "name": "U Wittenbergplatz (Berlin)",
          "lat": 52.502109,
          "lng": 13.342561
        },
        {
          "id": "de:11000:900023202",
          "name": "U Augsburger Str. (Berlin)",
          "lat": 52.500442,
          "lng": 13.336461
        },
        {
          "id": "de:11000:900042101",
          "name": "U Spichernstr. (Berlin)",
          "lat": 52.496582,
          "lng": 13.330613
        },
        {
          "id": "de:11000:900043101",
          "name": "U Hohenzollernplatz (Berlin)",
          "lat": 52.493833,
          "lng": 13.324051
        },
        {
          "id": "de:11000:900041101",
          "name": "U Fehrbelliner Platz (Berlin)",
          "lat": 52.490365,
          "lng": 13.314405
        },
        {
          "id": "de:11000:900045102",
          "name": "S+U Heidelberger Platz (Berlin)",
          "lat": 52.480124,
          "lng": 13.31229
        },
        {
          "id": "de:11000:900045101",
          "name": "U Rüdesheimer Platz (Berlin)",
          "lat": 52.472462,
          "lng": 13.314387
        },
        {
          "id": "de:11000:900051202",
          "name": "U Breitenbachplatz (Berlin)",
          "lat": 52.467342,
          "lng": 13.309276
        },
        {
          "id": "de:11000:900051302",
          "name": "U Podbielskiallee (Berlin)",
          "lat": 52.464172,
          "lng": 13.295203
        },
        {
          "id": "de:11000:900051303",
          "name": "U Dahlem-Dorf (Berlin)",
          "lat": 52.457695,
          "lng": 13.290011
        },
        {
          "id": "de:11000:900051201",
          "name": "U Freie Universität (Thielplatz) (Berlin)",
          "lat": 52.451,
          "lng": 13.281651
        },
        {
          "id": "de:11000:900051301",
          "name": "U Oskar-Helene-Heim (Berlin)",
          "lat": 52.450419,
          "lng": 13.26891
        },
        {
          "id": "de:11000:900050282",
          "name": "U Onkel Toms Hütte (Berlin)",
          "lat": 52.450146,
          "lng": 13.254016
        },
        {
          "id": "de:11000:900050201",
          "name": "U Krumme Lanke (Berlin)",
          "lat": 52.442615,
          "lng": 13.24036
        }
      ]
    },
    {
      "id": "U4",
      "shortName": "U4",
      "longName": "U4",
      "color": "#F0D722",
      "textColor": "#000000",
      "mode": 1,
      "operator": "BVG U-Bahn",
      "stations": [
        {
          "id": "de:11000:900056102",
          "name": "U Nollendorfplatz (Berlin)",
          "lat": 52.499644,
          "lng": 13.353825
        },
        {
          "id": "de:11000:900055101",
          "name": "U Viktoria-Luise-Platz (Berlin)",
          "lat": 52.496169,
          "lng": 13.343264
        },
        {
          "id": "de:11000:900055102",
          "name": "U Bayerischer Platz (Berlin)",
          "lat": 52.488654,
          "lng": 13.340237
        },
        {
          "id": "de:11000:900054101",
          "name": "U Rathaus Schöneberg (Berlin)",
          "lat": 52.483332,
          "lng": 13.341989
        },
        {
          "id": "de:11000:900054105",
          "name": "S+U Innsbrucker Platz (Berlin)",
          "lat": 52.4781,
          "lng": 13.342875
        }
      ]
    },
    {
      "id": "U5",
      "shortName": "U5",
      "longName": "U5",
      "color": "#7E5330",
      "textColor": "#FFFFFF",
      "mode": 1,
      "operator": "BVG U-Bahn",
      "stations": [
        {
          "id": "de:11000:900175010",
          "name": "U Hönow (Berlin)",
          "lat": 52.538105,
          "lng": 13.634541
        },
        {
          "id": "de:11000:900175015",
          "name": "U Louis-Lewin-Str. (Berlin)",
          "lat": 52.539135,
          "lng": 13.619707
        },
        {
          "id": "de:11000:900175007",
          "name": "U Hellersdorf (Berlin)",
          "lat": 52.536328,
          "lng": 13.605323
        },
        {
          "id": "de:11000:900175006",
          "name": "U Cottbusser Platz (Berlin)",
          "lat": 52.533963,
          "lng": 13.596894
        },
        {
          "id": "de:11000:900175005",
          "name": "U Kienberg (Gärten der Welt) (Berlin)",
          "lat": 52.52849,
          "lng": 13.59055
        },
        {
          "id": "de:11000:900175004",
          "name": "U Kaulsdorf-Nord (Berlin)",
          "lat": 52.521436,
          "lng": 13.588763
        },
        {
          "id": "de:11000:900175001",
          "name": "S+U Wuhletal (Berlin)",
          "lat": 52.512724,
          "lng": 13.574536
        },
        {
          "id": "de:11000:900171006",
          "name": "U Elsterwerdaer Platz (Berlin)",
          "lat": 52.505133,
          "lng": 13.560646
        },
        {
          "id": "de:11000:900171005",
          "name": "U Biesdorf-Süd (Berlin)",
          "lat": 52.499517,
          "lng": 13.547326
        },
        {
          "id": "de:11000:900161002",
          "name": "U Tierpark (Berlin)",
          "lat": 52.497236,
          "lng": 13.523626
        },
        {
          "id": "de:11000:900161512",
          "name": "U Friedrichsfelde (Berlin)",
          "lat": 52.505464,
          "lng": 13.513544
        },
        {
          "id": "de:11000:900160004",
          "name": "S+U Lichtenberg Bhf (Berlin)",
          "lat": 52.510672,
          "lng": 13.498359
        },
        {
          "id": "de:11000:900160005",
          "name": "U Magdalenenstr. (Berlin)",
          "lat": 52.512457,
          "lng": 13.487492
        },
        {
          "id": "de:11000:900120001",
          "name": "S+U Frankfurter Allee (Berlin)",
          "lat": 52.51358,
          "lng": 13.475848
        },
        {
          "id": "de:11000:900120009",
          "name": "U Samariterstr. (Berlin)",
          "lat": 52.514662,
          "lng": 13.465347
        },
        {
          "id": "de:11000:900120008",
          "name": "U Frankfurter Tor (Berlin)",
          "lat": 52.515772,
          "lng": 13.454085
        },
        {
          "id": "de:11000:900120025",
          "name": "U Weberwiese (Berlin)",
          "lat": 52.516848,
          "lng": 13.443278
        },
        {
          "id": "de:11000:900120006",
          "name": "U Strausberger Platz (Berlin)",
          "lat": 52.518025,
          "lng": 13.432208
        },
        {
          "id": "de:11000:900100017",
          "name": "U Schillingstr. (Berlin)",
          "lat": 52.520316,
          "lng": 13.421895
        },
        {
          "id": "de:11000:900100003",
          "name": "S+U Alexanderplatz Bhf (Berlin)",
          "lat": 52.521512,
          "lng": 13.411267
        },
        {
          "id": "de:11000:900100045",
          "name": "U Rotes Rathaus (Berlin)",
          "lat": 52.518462,
          "lng": 13.407061
        },
        {
          "id": "de:11000:900100537",
          "name": "U Museumsinsel (Berlin)",
          "lat": 52.518086,
          "lng": 13.400394
        },
        {
          "id": "de:11000:900100513",
          "name": "U Unter den Linden (Berlin)",
          "lat": 52.516996,
          "lng": 13.388876
        },
        {
          "id": "de:11000:900100025",
          "name": "S+U Brandenburger Tor (Berlin)",
          "lat": 52.516511,
          "lng": 13.381937
        },
        {
          "id": "de:11000:900003254",
          "name": "U Bundestag (Berlin)",
          "lat": 52.52011,
          "lng": 13.372952
        },
        {
          "id": "de:11000:900003201",
          "name": "S+U Berlin Hauptbahnhof",
          "lat": 52.525605,
          "lng": 13.369075
        }
      ]
    },
    {
      "id": "U6",
      "shortName": "U6",
      "longName": "U6",
      "color": "#8C6DAB",
      "textColor": "#FFFFFF",
      "mode": 1,
      "operator": "BVG U-Bahn",
      "stations": [
        {
          "id": "de:11000:900086102",
          "name": "U Kurt-Schumacher-Platz (Berlin)",
          "lat": 52.563483,
          "lng": 13.327328
        },
        {
          "id": "de:11000:900011102",
          "name": "U Afrikanische Str. (Berlin)",
          "lat": 52.560862,
          "lng": 13.333502
        },
        {
          "id": "de:11000:900011101",
          "name": "U Rehberge (Berlin)",
          "lat": 52.55667,
          "lng": 13.341013
        },
        {
          "id": "de:11000:900009103",
          "name": "U Seestr. (Berlin)",
          "lat": 52.55047,
          "lng": 13.351969
        },
        {
          "id": "de:11000:900009102",
          "name": "U Leopoldplatz (Berlin)",
          "lat": 52.546493,
          "lng": 13.359395
        },
        {
          "id": "de:11000:900009104",
          "name": "S+U Wedding (Berlin)",
          "lat": 52.542732,
          "lng": 13.36606
        },
        {
          "id": "de:11000:900008102",
          "name": "U Reinickendorfer Str. (Berlin)",
          "lat": 52.539887,
          "lng": 13.370382
        },
        {
          "id": "de:11000:900100501",
          "name": "U Schwartzkopffstr. (Berlin)",
          "lat": 52.535397,
          "lng": 13.377033
        },
        {
          "id": "de:11000:900100009",
          "name": "U Naturkundemuseum (Berlin)",
          "lat": 52.531254,
          "lng": 13.382415
        },
        {
          "id": "de:11000:900100019",
          "name": "U Oranienburger Tor (Berlin)",
          "lat": 52.525163,
          "lng": 13.387587
        },
        {
          "id": "de:11000:900100001",
          "name": "S+U Friedrichstr. Bhf (Berlin)",
          "lat": 52.520304,
          "lng": 13.387253
        },
        {
          "id": "de:11000:900100513",
          "name": "U Unter den Linden (Berlin)",
          "lat": 52.516996,
          "lng": 13.388876
        },
        {
          "id": "de:11000:900100011",
          "name": "U Stadtmitte (Berlin)",
          "lat": 52.511495,
          "lng": 13.389719
        },
        {
          "id": "de:11000:900012102",
          "name": "U Kochstr. (Checkpoint Charlie) (Berlin)",
          "lat": 52.506673,
          "lng": 13.390863
        },
        {
          "id": "de:11000:900012103",
          "name": "U Hallesches Tor (Berlin)",
          "lat": 52.497774,
          "lng": 13.39176
        },
        {
          "id": "de:11000:900017101",
          "name": "U Mehringdamm (Berlin)",
          "lat": 52.493567,
          "lng": 13.38814
        },
        {
          "id": "de:11000:900017102",
          "name": "U Platz der Luftbrücke (Berlin)",
          "lat": 52.48487,
          "lng": 13.385927
        },
        {
          "id": "de:11000:900068101",
          "name": "U Paradestr. (Berlin)",
          "lat": 52.478142,
          "lng": 13.386725
        },
        {
          "id": "de:11000:900068201",
          "name": "S+U Tempelhof (Berlin)",
          "lat": 52.470574,
          "lng": 13.3859
        },
        {
          "id": "de:11000:900068202",
          "name": "U Alt-Tempelhof (Berlin)",
          "lat": 52.46593,
          "lng": 13.385796
        },
        {
          "id": "de:11000:900068302",
          "name": "U Kaiserin-Augusta-Str. (Berlin)",
          "lat": 52.460512,
          "lng": 13.384905
        },
        {
          "id": "de:11000:900069271",
          "name": "U Ullsteinstr. (Berlin)",
          "lat": 52.45345,
          "lng": 13.384771
        },
        {
          "id": "de:11000:900070101",
          "name": "U Westphalweg (Berlin)",
          "lat": 52.445646,
          "lng": 13.385744
        },
        {
          "id": "de:11000:900070301",
          "name": "U Alt-Mariendorf (Berlin)",
          "lat": 52.438609,
          "lng": 13.38792
        }
      ]
    },
    {
      "id": "U7",
      "shortName": "U7",
      "longName": "U7",
      "color": "#009BD5",
      "textColor": "#FFFFFF",
      "mode": 1,
      "operator": "BVG U-Bahn",
      "stations": [
        {
          "id": "de:11000:900029302",
          "name": "S+U Rathaus Spandau (Berlin)",
          "lat": 52.535641,
          "lng": 13.199837
        },
        {
          "id": "de:11000:900029301",
          "name": "U Altstadt Spandau (Berlin)",
          "lat": 52.539161,
          "lng": 13.206763
        },
        {
          "id": "de:11000:900033101",
          "name": "U Zitadelle (Berlin)",
          "lat": 52.537522,
          "lng": 13.217625
        },
        {
          "id": "de:11000:900034102",
          "name": "U Haselhorst (Berlin)",
          "lat": 52.538687,
          "lng": 13.231946
        },
        {
          "id": "de:11000:900034101",
          "name": "U Paulsternstr. (Berlin)",
          "lat": 52.538127,
          "lng": 13.248065
        },
        {
          "id": "de:11000:900036101",
          "name": "U Rohrdamm (Berlin)",
          "lat": 52.536904,
          "lng": 13.26287
        },
        {
          "id": "de:11000:900035101",
          "name": "U Siemensdamm (Berlin)",
          "lat": 52.537026,
          "lng": 13.273323
        },
        {
          "id": "de:11000:900018102",
          "name": "U Halemweg (Berlin)",
          "lat": 52.536703,
          "lng": 13.286578
        },
        {
          "id": "de:11000:900018101",
          "name": "U Jakob-Kaiser-Platz (Berlin)",
          "lat": 52.536985,
          "lng": 13.293661
        },
        {
          "id": "de:11000:900020201",
          "name": "S+U Jungfernheide Bhf (Berlin)",
          "lat": 52.530452,
          "lng": 13.300124
        },
        {
          "id": "de:11000:900019204",
          "name": "U Mierendorffplatz (Berlin)",
          "lat": 52.525978,
          "lng": 13.305715
        },
        {
          "id": "de:11000:900022202",
          "name": "U Richard-Wagner-Platz (Berlin)",
          "lat": 52.517154,
          "lng": 13.307221
        },
        {
          "id": "de:11000:900024201",
          "name": "U Bismarckstr. (Berlin)",
          "lat": 52.511543,
          "lng": 13.305335
        },
        {
          "id": "de:11000:900024202",
          "name": "U Wilmersdorfer Str. (Berlin)",
          "lat": 52.506415,
          "lng": 13.306774
        },
        {
          "id": "de:11000:900023302",
          "name": "U Adenauerplatz (Berlin)",
          "lat": 52.500086,
          "lng": 13.307348
        },
        {
          "id": "de:11000:900041201",
          "name": "U Konstanzer Str. (Berlin)",
          "lat": 52.493567,
          "lng": 13.310084
        },
        {
          "id": "de:11000:900041101",
          "name": "U Fehrbelliner Platz (Berlin)",
          "lat": 52.490365,
          "lng": 13.314405
        },
        {
          "id": "de:11000:900041102",
          "name": "U Blissestr. (Berlin)",
          "lat": 52.486478,
          "lng": 13.320545
        },
        {
          "id": "de:11000:900044201",
          "name": "U Berliner Str. (Berlin)",
          "lat": 52.487047,
          "lng": 13.331355
        },
        {
          "id": "de:11000:900055102",
          "name": "U Bayerischer Platz (Berlin)",
          "lat": 52.488654,
          "lng": 13.340237
        },
        {
          "id": "de:11000:900054103",
          "name": "U Eisenacher Str. (Berlin)",
          "lat": 52.489477,
          "lng": 13.350284
        },
        {
          "id": "de:11000:900054102",
          "name": "U Kleistpark (Berlin)",
          "lat": 52.490686,
          "lng": 13.360543
        },
        {
          "id": "de:11000:900058103",
          "name": "S+U Yorckstr. (Berlin)",
          "lat": 52.492358,
          "lng": 13.372212
        },
        {
          "id": "de:11000:900017104",
          "name": "U Möckernbrücke (Berlin)",
          "lat": 52.498944,
          "lng": 13.383256
        },
        {
          "id": "de:11000:900017101",
          "name": "U Mehringdamm (Berlin)",
          "lat": 52.493567,
          "lng": 13.38814
        },
        {
          "id": "de:11000:900016101",
          "name": "U Gneisenaustr. (Berlin)",
          "lat": 52.491252,
          "lng": 13.395382
        },
        {
          "id": "de:11000:900016202",
          "name": "U Südstern (Berlin)",
          "lat": 52.489219,
          "lng": 13.407685
        },
        {
          "id": "de:11000:900078101",
          "name": "U Hermannplatz (Berlin)",
          "lat": 52.486957,
          "lng": 13.42472
        },
        {
          "id": "de:11000:900078102",
          "name": "U Rathaus Neukölln (Berlin)",
          "lat": 52.481146,
          "lng": 13.434807
        },
        {
          "id": "de:11000:900078103",
          "name": "U Karl-Marx-Str. (Berlin)",
          "lat": 52.476429,
          "lng": 13.439805
        },
        {
          "id": "de:11000:900078201",
          "name": "S+U Neukölln (Berlin)",
          "lat": 52.469282,
          "lng": 13.443692
        },
        {
          "id": "de:11000:900080202",
          "name": "U Grenzallee (Berlin)",
          "lat": 52.463516,
          "lng": 13.444828
        },
        {
          "id": "de:11000:900080201",
          "name": "U Blaschkoallee (Berlin)",
          "lat": 52.452743,
          "lng": 13.448976
        },
        {
          "id": "de:11000:900080401",
          "name": "U Parchimer Allee (Berlin)",
          "lat": 52.445299,
          "lng": 13.449967
        },
        {
          "id": "de:11000:900080402",
          "name": "U Britz-Süd (Berlin)",
          "lat": 52.437076,
          "lng": 13.447668
        },
        {
          "id": "de:11000:900082202",
          "name": "U Johannisthaler Chaussee (Berlin)",
          "lat": 52.429253,
          "lng": 13.453851
        },
        {
          "id": "de:11000:900082201",
          "name": "U Lipschitzallee (Berlin)",
          "lat": 52.424645,
          "lng": 13.463109
        },
        {
          "id": "de:11000:900083102",
          "name": "U Wutzkyallee (Berlin)",
          "lat": 52.423152,
          "lng": 13.47482
        },
        {
          "id": "de:11000:900083101",
          "name": "U Zwickauer Damm (Berlin)",
          "lat": 52.423032,
          "lng": 13.484371
        },
        {
          "id": "de:11000:900083201",
          "name": "U Rudow (Berlin)",
          "lat": 52.415714,
          "lng": 13.496527
        }
      ]
    },
    {
      "id": "U8",
      "shortName": "U8",
      "longName": "U8",
      "color": "#224F86",
      "textColor": "#FFFFFF",
      "mode": 1,
      "operator": "BVG U-Bahn",
      "stations": [
        {
          "id": "de:11000:900096101",
          "name": "S+U Wittenau (Berlin)",
          "lat": 52.596392,
          "lng": 13.335481
        },
        {
          "id": "de:11000:900096410",
          "name": "U Rathaus Reinickendorf (Berlin)",
          "lat": 52.588218,
          "lng": 13.325568
        },
        {
          "id": "de:11000:900096458",
          "name": "S+U Karl-Bonhoeffer-Nervenklinik (Berlin)",
          "lat": 52.578169,
          "lng": 13.332921
        },
        {
          "id": "de:11000:900086160",
          "name": "U Lindauer Allee (Berlin)",
          "lat": 52.575386,
          "lng": 13.339036
        },
        {
          "id": "de:11000:900085104",
          "name": "U Paracelsus-Bad (Berlin)",
          "lat": 52.574432,
          "lng": 13.347301
        },
        {
          "id": "de:11000:900085203",
          "name": "U Residenzstr. (Berlin)",
          "lat": 52.570843,
          "lng": 13.360635
        },
        {
          "id": "de:11000:900085202",
          "name": "U Franz-Neumann-Platz (Berlin)",
          "lat": 52.563854,
          "lng": 13.364283
        },
        {
          "id": "de:11000:900009202",
          "name": "U Osloer Str. (Berlin)",
          "lat": 52.557107,
          "lng": 13.373279
        },
        {
          "id": "de:11000:900009203",
          "name": "U Pankstr. (Berlin)",
          "lat": 52.55228,
          "lng": 13.381437
        },
        {
          "id": "de:11000:900007102",
          "name": "S+U Gesundbrunnen Bhf (Berlin)",
          "lat": 52.548637,
          "lng": 13.388372
        },
        {
          "id": "de:11000:900007103",
          "name": "U Voltastr. (Berlin)",
          "lat": 52.54193,
          "lng": 13.393157
        },
        {
          "id": "de:11000:900007110",
          "name": "U Bernauer Str. (Berlin)",
          "lat": 52.537994,
          "lng": 13.396231
        },
        {
          "id": "de:11000:900100023",
          "name": "U Rosenthaler Platz (Berlin)",
          "lat": 52.529781,
          "lng": 13.401393
        },
        {
          "id": "de:11000:900100051",
          "name": "U Weinmeisterstr. (Berlin)",
          "lat": 52.525376,
          "lng": 13.405305
        },
        {
          "id": "de:11000:900100003",
          "name": "S+U Alexanderplatz Bhf (Berlin)",
          "lat": 52.521512,
          "lng": 13.411267
        },
        {
          "id": "de:11000:900100004",
          "name": "S+U Jannowitzbrücke (Berlin)",
          "lat": 52.5155,
          "lng": 13.418027
        },
        {
          "id": "de:11000:900100008",
          "name": "U Heinrich-Heine-Str. (Berlin)",
          "lat": 52.510558,
          "lng": 13.416124
        },
        {
          "id": "de:11000:900013101",
          "name": "U Moritzplatz (Berlin)",
          "lat": 52.503739,
          "lng": 13.410947
        },
        {
          "id": "de:11000:900013102",
          "name": "U Kottbusser Tor (Berlin)",
          "lat": 52.499047,
          "lng": 13.417748
        },
        {
          "id": "de:11000:900016201",
          "name": "U Schönleinstr. (Berlin)",
          "lat": 52.493341,
          "lng": 13.421912
        },
        {
          "id": "de:11000:900078101",
          "name": "U Hermannplatz (Berlin)",
          "lat": 52.486957,
          "lng": 13.42472
        },
        {
          "id": "de:11000:900079202",
          "name": "U Boddinstr. (Berlin)",
          "lat": 52.479745,
          "lng": 13.425782
        },
        {
          "id": "de:11000:900079201",
          "name": "U Leinestr. (Berlin)",
          "lat": 52.472874,
          "lng": 13.4284
        },
        {
          "id": "de:11000:900079221",
          "name": "S+U Hermannstr. (Berlin)",
          "lat": 52.467181,
          "lng": 13.431704
        }
      ]
    },
    {
      "id": "U9",
      "shortName": "U9",
      "longName": "U9",
      "color": "#F3791D",
      "textColor": "#000000",
      "mode": 1,
      "operator": "BVG U-Bahn",
      "stations": [
        {
          "id": "de:11000:900009202",
          "name": "U Osloer Str. (Berlin)",
          "lat": 52.557107,
          "lng": 13.373279
        },
        {
          "id": "de:11000:900009201",
          "name": "U Nauener Platz (Berlin)",
          "lat": 52.551524,
          "lng": 13.367365
        },
        {
          "id": "de:11000:900009102",
          "name": "U Leopoldplatz (Berlin)",
          "lat": 52.546493,
          "lng": 13.359395
        },
        {
          "id": "de:11000:900009101",
          "name": "U Amrumer Str. (Berlin)",
          "lat": 52.542202,
          "lng": 13.349534
        },
        {
          "id": "de:11000:900001201",
          "name": "S+U Westhafen (Berlin)",
          "lat": 52.536183,
          "lng": 13.343837
        },
        {
          "id": "de:11000:900002201",
          "name": "U Birkenstr. (Berlin)",
          "lat": 52.532269,
          "lng": 13.341418
        },
        {
          "id": "de:11000:900003104",
          "name": "U Turmstr. (Berlin)",
          "lat": 52.525938,
          "lng": 13.341417
        },
        {
          "id": "de:11000:900003101",
          "name": "U Hansaplatz (Berlin)",
          "lat": 52.518111,
          "lng": 13.342165
        },
        {
          "id": "de:11000:900023201",
          "name": "S+U Zoologischer Garten Bhf (Berlin)",
          "lat": 52.506921,
          "lng": 13.332707
        },
        {
          "id": "de:11000:900023203",
          "name": "U Kurfürstendamm (Berlin)",
          "lat": 52.503763,
          "lng": 13.331419
        },
        {
          "id": "de:11000:900042101",
          "name": "U Spichernstr. (Berlin)",
          "lat": 52.496582,
          "lng": 13.330613
        },
        {
          "id": "de:11000:900043201",
          "name": "U Güntzelstr. (Berlin)",
          "lat": 52.491992,
          "lng": 13.33121
        },
        {
          "id": "de:11000:900044201",
          "name": "U Berliner Str. (Berlin)",
          "lat": 52.487047,
          "lng": 13.331355
        },
        {
          "id": "de:11000:900044202",
          "name": "S+U Bundesplatz (Berlin)",
          "lat": 52.477667,
          "lng": 13.328626
        },
        {
          "id": "de:11000:900061102",
          "name": "U Friedrich-Wilhelm-Platz (Berlin)",
          "lat": 52.471439,
          "lng": 13.328676
        },
        {
          "id": "de:11000:900061101",
          "name": "U Walther-Schreiber-Platz (Berlin)",
          "lat": 52.464998,
          "lng": 13.328409
        },
        {
          "id": "de:11000:900062203",
          "name": "U Schloßstr. (Berlin)",
          "lat": 52.461183,
          "lng": 13.324836
        },
        {
          "id": "de:11000:900062202",
          "name": "S+U Rathaus Steglitz (Berlin)",
          "lat": 52.455066,
          "lng": 13.322152
        }
      ]
    },
    {
      "id": "S1",
      "shortName": "S1",
      "longName": "S1",
      "color": "#DA6BA2",
      "textColor": "#FFFFFF",
      "mode": 1,
      "operator": "S-Bahn Berlin",
      "stations": [
        {
          "id": "de:12054:900230999",
          "name": "S Potsdam Hauptbahnhof",
          "lat": 52.391447,
          "lng": 13.067157
        },
        {
          "id": "de:12054:900230000",
          "name": "S Babelsberg",
          "lat": 52.391449,
          "lng": 13.094634
        },
        {
          "id": "de:12054:900230003",
          "name": "S Griebnitzsee Bhf",
          "lat": 52.393945,
          "lng": 13.128808
        },
        {
          "id": "de:11000:900053301",
          "name": "S Wannsee Bhf (Berlin)",
          "lat": 52.421725,
          "lng": 13.178932
        },
        {
          "id": "de:11000:900052201",
          "name": "S Nikolassee (Berlin)",
          "lat": 52.43121,
          "lng": 13.193298
        },
        {
          "id": "de:11000:900050355",
          "name": "S Schlachtensee (Berlin)",
          "lat": 52.439806,
          "lng": 13.213986
        },
        {
          "id": "de:11000:900050301",
          "name": "S Mexikoplatz (Berlin)",
          "lat": 52.437166,
          "lng": 13.23206
        },
        {
          "id": "de:11000:900049201",
          "name": "S Zehlendorf (Berlin)",
          "lat": 52.431209,
          "lng": 13.259227
        },
        {
          "id": "de:11000:900049202",
          "name": "S Sundgauer Str. (Berlin)",
          "lat": 52.436187,
          "lng": 13.273501
        },
        {
          "id": "de:11000:900066101",
          "name": "S Lichterfelde West (Berlin)",
          "lat": 52.443512,
          "lng": 13.294141
        },
        {
          "id": "de:11000:900066102",
          "name": "S Botanischer Garten (Berlin)",
          "lat": 52.447552,
          "lng": 13.306041
        },
        {
          "id": "de:11000:900062202",
          "name": "S+U Rathaus Steglitz (Berlin)",
          "lat": 52.455066,
          "lng": 13.322152
        },
        {
          "id": "de:11000:900063101",
          "name": "S Feuerbachstr. (Berlin)",
          "lat": 52.463578,
          "lng": 13.332412
        },
        {
          "id": "de:11000:900060101",
          "name": "S Friedenau (Berlin)",
          "lat": 52.470002,
          "lng": 13.340598
        },
        {
          "id": "de:11000:900054104",
          "name": "S Schöneberg (Berlin)",
          "lat": 52.479811,
          "lng": 13.352848
        },
        {
          "id": "de:11000:900057104",
          "name": "S Julius-Leber-Brücke (Berlin)",
          "lat": 52.486263,
          "lng": 13.360775
        },
        {
          "id": "de:11000:900057102",
          "name": "S+U Yorckstr. (Großgörschenstr.) (Berlin)",
          "lat": 52.492345,
          "lng": 13.367986
        },
        {
          "id": "de:11000:900012101",
          "name": "S Anhalter Bahnhof (Berlin)",
          "lat": 52.504538,
          "lng": 13.382077
        },
        {
          "id": "de:11000:900100020",
          "name": "S+U Potsdamer Platz Bhf (Berlin)",
          "lat": 52.509358,
          "lng": 13.376547
        },
        {
          "id": "de:11000:900100025",
          "name": "S+U Brandenburger Tor (Berlin)",
          "lat": 52.516511,
          "lng": 13.381937
        },
        {
          "id": "de:11000:900100001",
          "name": "S+U Friedrichstr. Bhf (Berlin)",
          "lat": 52.520304,
          "lng": 13.387253
        },
        {
          "id": "de:11000:900100007",
          "name": "S Oranienburger Str. (Berlin)",
          "lat": 52.525161,
          "lng": 13.393068
        },
        {
          "id": "de:11000:900007104",
          "name": "S Nordbahnhof (Berlin)",
          "lat": 52.531672,
          "lng": 13.388798
        },
        {
          "id": "de:11000:900008101",
          "name": "S Humboldthain (Berlin)",
          "lat": 52.544738,
          "lng": 13.37873
        },
        {
          "id": "de:11000:900007102",
          "name": "S+U Gesundbrunnen Bhf (Berlin)",
          "lat": 52.548637,
          "lng": 13.388372
        },
        {
          "id": "de:11000:900110011",
          "name": "S Bornholmer Str. (Berlin)",
          "lat": 52.554763,
          "lng": 13.397841
        },
        {
          "id": "de:11000:900130003",
          "name": "S Wollankstr. (Berlin)",
          "lat": 52.564974,
          "lng": 13.39315
        },
        {
          "id": "de:11000:900085201",
          "name": "S Schönholz (Berlin)",
          "lat": 52.571901,
          "lng": 13.380242
        },
        {
          "id": "de:11000:900084101",
          "name": "S Wilhelmsruh (Berlin)",
          "lat": 52.581389,
          "lng": 13.362938
        },
        {
          "id": "de:11000:900096101",
          "name": "S+U Wittenau (Berlin)",
          "lat": 52.596392,
          "lng": 13.335481
        },
        {
          "id": "de:11000:900094101",
          "name": "S Waidmannslust (Berlin)",
          "lat": 52.606814,
          "lng": 13.320549
        },
        {
          "id": "de:11000:900093201",
          "name": "S Hermsdorf (Berlin)",
          "lat": 52.618165,
          "lng": 13.306804
        },
        {
          "id": "de:11000:900092201",
          "name": "S Frohnau (Berlin)",
          "lat": 52.632958,
          "lng": 13.289564
        },
        {
          "id": "de:12065:900200009",
          "name": "S Hohen Neuendorf",
          "lat": 52.669496,
          "lng": 13.287166
        },
        {
          "id": "de:12065:900200008",
          "name": "S Birkenwerder Bhf",
          "lat": 52.688576,
          "lng": 13.288846
        },
        {
          "id": "de:12065:900200007",
          "name": "S Borgsdorf",
          "lat": 52.714917,
          "lng": 13.276787
        },
        {
          "id": "de:12065:900200006",
          "name": "S Lehnitz",
          "lat": 52.741393,
          "lng": 13.26328
        },
        {
          "id": "de:12065:900200005",
          "name": "S Oranienburg Bhf",
          "lat": 52.754487,
          "lng": 13.248311
        }
      ]
    },
    {
      "id": "S2",
      "shortName": "S2",
      "longName": "S2",
      "color": "#007734",
      "textColor": "#FFFFFF",
      "mode": 1,
      "operator": "S-Bahn Berlin",
      "stations": [
        {
          "id": "de:12072:900245027",
          "name": "S Blankenfelde (TF) Bhf",
          "lat": 52.337628,
          "lng": 13.415908
        },
        {
          "id": "de:12072:900245028",
          "name": "S Mahlow",
          "lat": 52.360164,
          "lng": 13.408775
        },
        {
          "id": "de:11000:900074201",
          "name": "S Lichtenrade (Berlin)",
          "lat": 52.38668,
          "lng": 13.396642
        },
        {
          "id": "de:11000:900074202",
          "name": "S Schichauweg (Berlin)",
          "lat": 52.39856,
          "lng": 13.389437
        },
        {
          "id": "de:11000:900072101",
          "name": "S Buckower Chaussee (Berlin)",
          "lat": 52.411035,
          "lng": 13.38247
        },
        {
          "id": "de:11000:900073101",
          "name": "S Marienfelde (Berlin)",
          "lat": 52.423816,
          "lng": 13.375022
        },
        {
          "id": "de:11000:900068301",
          "name": "S Attilastr. (Berlin)",
          "lat": 52.447298,
          "lng": 13.361177
        },
        {
          "id": "de:11000:900058102",
          "name": "S Priesterweg (Berlin)",
          "lat": 52.459239,
          "lng": 13.356028
        },
        {
          "id": "de:11000:900058101",
          "name": "S Südkreuz Bhf (Berlin)",
          "lat": 52.475502,
          "lng": 13.365552
        },
        {
          "id": "de:11000:900058103",
          "name": "S+U Yorckstr. (Berlin)",
          "lat": 52.492358,
          "lng": 13.372212
        },
        {
          "id": "de:11000:900012101",
          "name": "S Anhalter Bahnhof (Berlin)",
          "lat": 52.504538,
          "lng": 13.382077
        },
        {
          "id": "de:11000:900100020",
          "name": "S+U Potsdamer Platz Bhf (Berlin)",
          "lat": 52.509358,
          "lng": 13.376547
        },
        {
          "id": "de:11000:900100025",
          "name": "S+U Brandenburger Tor (Berlin)",
          "lat": 52.516511,
          "lng": 13.381937
        },
        {
          "id": "de:11000:900100001",
          "name": "S+U Friedrichstr. Bhf (Berlin)",
          "lat": 52.520304,
          "lng": 13.387253
        },
        {
          "id": "de:11000:900100007",
          "name": "S Oranienburger Str. (Berlin)",
          "lat": 52.525161,
          "lng": 13.393068
        },
        {
          "id": "de:11000:900007104",
          "name": "S Nordbahnhof (Berlin)",
          "lat": 52.531672,
          "lng": 13.388798
        },
        {
          "id": "de:11000:900008101",
          "name": "S Humboldthain (Berlin)",
          "lat": 52.544738,
          "lng": 13.37873
        },
        {
          "id": "de:11000:900007102",
          "name": "S+U Gesundbrunnen Bhf (Berlin)",
          "lat": 52.548637,
          "lng": 13.388372
        },
        {
          "id": "de:11000:900110011",
          "name": "S Bornholmer Str. (Berlin)",
          "lat": 52.554763,
          "lng": 13.397841
        },
        {
          "id": "de:11000:900130002",
          "name": "S+U Pankow (Berlin)",
          "lat": 52.567281,
          "lng": 13.412279
        },
        {
          "id": "de:11000:900130001",
          "name": "S Pankow-Heinersdorf (Berlin)",
          "lat": 52.577603,
          "lng": 13.42909
        },
        {
          "id": "de:11000:900142001",
          "name": "S Blankenburg (Berlin)",
          "lat": 52.591069,
          "lng": 13.442972
        },
        {
          "id": "de:11000:900143001",
          "name": "S Karow Bhf (Berlin)",
          "lat": 52.615755,
          "lng": 13.470081
        },
        {
          "id": "de:11000:900135001",
          "name": "S Buch (Berlin)",
          "lat": 52.636297,
          "lng": 13.492369
        },
        {
          "id": "de:12060:900350162",
          "name": "S Röntgental",
          "lat": 52.649221,
          "lng": 13.514525
        },
        {
          "id": "de:12060:900350163",
          "name": "S Zepernick",
          "lat": 52.659159,
          "lng": 13.533054
        },
        {
          "id": "de:12060:900350161",
          "name": "S Bernau-Friedenstal",
          "lat": 52.668369,
          "lng": 13.564597
        },
        {
          "id": "de:12060:900350160",
          "name": "S Bernau Bhf",
          "lat": 52.675687,
          "lng": 13.592695
        }
      ]
    },
    {
      "id": "S3",
      "shortName": "S3",
      "longName": "S3",
      "color": "#0066AD",
      "textColor": "#FFFFFF",
      "mode": 1,
      "operator": "S-Bahn Berlin",
      "stations": [
        {
          "id": "de:12067:900310004",
          "name": "S Erkner Bhf",
          "lat": 52.426957,
          "lng": 13.752661
        },
        {
          "id": "de:11000:900183002",
          "name": "S Wilhelmshagen (Berlin)",
          "lat": 52.439119,
          "lng": 13.721421
        },
        {
          "id": "de:11000:900183001",
          "name": "S Rahnsdorf (Berlin)",
          "lat": 52.451442,
          "lng": 13.691582
        },
        {
          "id": "de:11000:900182002",
          "name": "S Friedrichshagen (Berlin)",
          "lat": 52.45719,
          "lng": 13.625478
        },
        {
          "id": "de:11000:900182001",
          "name": "S Hirschgarten (Berlin)",
          "lat": 52.457856,
          "lng": 13.601462
        },
        {
          "id": "de:11000:900180001",
          "name": "S Köpenick (Berlin)",
          "lat": 52.458692,
          "lng": 13.579543
        },
        {
          "id": "de:11000:900180002",
          "name": "S Wuhlheide (Berlin)",
          "lat": 52.469058,
          "lng": 13.553527
        },
        {
          "id": "de:11000:900162001",
          "name": "S Karlshorst (Berlin)",
          "lat": 52.481111,
          "lng": 13.525857
        },
        {
          "id": "de:11000:900160002",
          "name": "S Betriebsbahnhof Rummelsburg (Berlin)",
          "lat": 52.493599,
          "lng": 13.498152
        },
        {
          "id": "de:11000:900160001",
          "name": "S Rummelsburg (Berlin)",
          "lat": 52.501213,
          "lng": 13.478699
        },
        {
          "id": "de:11000:900120003",
          "name": "S Ostkreuz Bhf (Berlin)",
          "lat": 52.503113,
          "lng": 13.469221
        },
        {
          "id": "de:11000:900120004",
          "name": "S+U Warschauer Str. (Berlin)",
          "lat": 52.505765,
          "lng": 13.449159
        },
        {
          "id": "de:11000:900120005",
          "name": "S Ostbahnhof (Berlin)",
          "lat": 52.510331,
          "lng": 13.435086
        },
        {
          "id": "de:11000:900100004",
          "name": "S+U Jannowitzbrücke (Berlin)",
          "lat": 52.5155,
          "lng": 13.418027
        },
        {
          "id": "de:11000:900100003",
          "name": "S+U Alexanderplatz Bhf (Berlin)",
          "lat": 52.521512,
          "lng": 13.411267
        },
        {
          "id": "de:11000:900100002",
          "name": "S Hackescher Markt (Berlin)",
          "lat": 52.522607,
          "lng": 13.402358
        },
        {
          "id": "de:11000:900100001",
          "name": "S+U Friedrichstr. Bhf (Berlin)",
          "lat": 52.520304,
          "lng": 13.387253
        },
        {
          "id": "de:11000:900003201",
          "name": "S+U Berlin Hauptbahnhof",
          "lat": 52.525605,
          "lng": 13.369075
        },
        {
          "id": "de:11000:900003102",
          "name": "S Bellevue (Berlin)",
          "lat": 52.519951,
          "lng": 13.347098
        },
        {
          "id": "de:11000:900003103",
          "name": "S Tiergarten (Berlin)",
          "lat": 52.513959,
          "lng": 13.336241
        },
        {
          "id": "de:11000:900023201",
          "name": "S+U Zoologischer Garten Bhf (Berlin)",
          "lat": 52.506921,
          "lng": 13.332707
        },
        {
          "id": "de:11000:900024203",
          "name": "S Savignyplatz (Berlin)",
          "lat": 52.505223,
          "lng": 13.319003
        },
        {
          "id": "de:11000:900024101",
          "name": "S Charlottenburg Bhf (Berlin)",
          "lat": 52.504732,
          "lng": 13.303862
        },
        {
          "id": "de:11000:900024102",
          "name": "S Westkreuz (Berlin)",
          "lat": 52.501152,
          "lng": 13.283036
        },
        {
          "id": "de:11000:900025423",
          "name": "S Messe Süd (Berlin)",
          "lat": 52.498771,
          "lng": 13.27045
        },
        {
          "id": "de:11000:900026105",
          "name": "S Heerstr. (Berlin)",
          "lat": 52.508499,
          "lng": 13.258442
        },
        {
          "id": "de:11000:900025321",
          "name": "S Olympiastadion (Berlin)",
          "lat": 52.511135,
          "lng": 13.241111
        },
        {
          "id": "de:11000:900025424",
          "name": "S Pichelsberg (Berlin)",
          "lat": 52.509927,
          "lng": 13.228253
        },
        {
          "id": "de:11000:900030202",
          "name": "S Stresow (Berlin)",
          "lat": 52.53197,
          "lng": 13.209099
        },
        {
          "id": "de:11000:900029101",
          "name": "S Spandau Bhf (Berlin)",
          "lat": 52.534798,
          "lng": 13.197477
        }
      ]
    },
    {
      "id": "S5",
      "shortName": "S5",
      "longName": "S5",
      "color": "#EB7405",
      "textColor": "#FFFFFF",
      "mode": 1,
      "operator": "S-Bahn Berlin",
      "stations": [
        {
          "id": "de:12064:900320001",
          "name": "S Strausberg Nord",
          "lat": 52.5907,
          "lng": 13.908894
        },
        {
          "id": "de:12064:900320002",
          "name": "S Strausberg Stadt",
          "lat": 52.577594,
          "lng": 13.888281
        },
        {
          "id": "de:12064:900320003",
          "name": "S Hegermühle",
          "lat": 52.549039,
          "lng": 13.86679
        },
        {
          "id": "de:12064:900320004",
          "name": "S Strausberg Bhf",
          "lat": 52.532364,
          "lng": 13.834793
        },
        {
          "id": "de:12064:900320005",
          "name": "S Petershagen Nord",
          "lat": 52.528989,
          "lng": 13.790696
        },
        {
          "id": "de:12064:900320006",
          "name": "S Fredersdorf",
          "lat": 52.5263,
          "lng": 13.761071
        },
        {
          "id": "de:12064:900320007",
          "name": "S Neuenhagen (b Berlin)",
          "lat": 52.520614,
          "lng": 13.700053
        },
        {
          "id": "de:12064:900320008",
          "name": "S Hoppegarten",
          "lat": 52.517831,
          "lng": 13.673748
        },
        {
          "id": "de:12064:900320026",
          "name": "S Birkenstein",
          "lat": 52.515794,
          "lng": 13.649774
        },
        {
          "id": "de:11000:900176001",
          "name": "S Mahlsdorf Bhf (Berlin)",
          "lat": 52.512041,
          "lng": 13.610693
        },
        {
          "id": "de:11000:900175002",
          "name": "S Kaulsdorf (Berlin)",
          "lat": 52.512122,
          "lng": 13.58903
        },
        {
          "id": "de:11000:900175001",
          "name": "S+U Wuhletal (Berlin)",
          "lat": 52.512724,
          "lng": 13.574536
        },
        {
          "id": "de:11000:900171001",
          "name": "S Biesdorf (Berlin)",
          "lat": 52.513059,
          "lng": 13.555035
        },
        {
          "id": "de:11000:900171002",
          "name": "S Friedrichsfelde Ost (Berlin)",
          "lat": 52.513531,
          "lng": 13.519078
        },
        {
          "id": "de:11000:900160004",
          "name": "S+U Lichtenberg Bhf (Berlin)",
          "lat": 52.510672,
          "lng": 13.498359
        },
        {
          "id": "de:11000:900160003",
          "name": "S Nöldnerplatz (Berlin)",
          "lat": 52.503444,
          "lng": 13.484297
        },
        {
          "id": "de:11000:900120003",
          "name": "S Ostkreuz Bhf (Berlin)",
          "lat": 52.503113,
          "lng": 13.469221
        },
        {
          "id": "de:11000:900120004",
          "name": "S+U Warschauer Str. (Berlin)",
          "lat": 52.505765,
          "lng": 13.449159
        },
        {
          "id": "de:11000:900120005",
          "name": "S Ostbahnhof (Berlin)",
          "lat": 52.510331,
          "lng": 13.435086
        },
        {
          "id": "de:11000:900100004",
          "name": "S+U Jannowitzbrücke (Berlin)",
          "lat": 52.5155,
          "lng": 13.418027
        },
        {
          "id": "de:11000:900100003",
          "name": "S+U Alexanderplatz Bhf (Berlin)",
          "lat": 52.521512,
          "lng": 13.411267
        },
        {
          "id": "de:11000:900100002",
          "name": "S Hackescher Markt (Berlin)",
          "lat": 52.522607,
          "lng": 13.402358
        },
        {
          "id": "de:11000:900100001",
          "name": "S+U Friedrichstr. Bhf (Berlin)",
          "lat": 52.520304,
          "lng": 13.387253
        },
        {
          "id": "de:11000:900003201",
          "name": "S+U Berlin Hauptbahnhof",
          "lat": 52.525605,
          "lng": 13.369075
        },
        {
          "id": "de:11000:900003102",
          "name": "S Bellevue (Berlin)",
          "lat": 52.519951,
          "lng": 13.347098
        },
        {
          "id": "de:11000:900003103",
          "name": "S Tiergarten (Berlin)",
          "lat": 52.513959,
          "lng": 13.336241
        },
        {
          "id": "de:11000:900023201",
          "name": "S+U Zoologischer Garten Bhf (Berlin)",
          "lat": 52.506921,
          "lng": 13.332707
        },
        {
          "id": "de:11000:900024203",
          "name": "S Savignyplatz (Berlin)",
          "lat": 52.505223,
          "lng": 13.319003
        },
        {
          "id": "de:11000:900024101",
          "name": "S Charlottenburg Bhf (Berlin)",
          "lat": 52.504732,
          "lng": 13.303862
        },
        {
          "id": "de:11000:900024102",
          "name": "S Westkreuz (Berlin)",
          "lat": 52.501152,
          "lng": 13.283036
        },
        {
          "id": "de:11000:900025423",
          "name": "S Messe Süd (Berlin)",
          "lat": 52.498771,
          "lng": 13.27045
        },
        {
          "id": "de:11000:900026105",
          "name": "S Heerstr. (Berlin)",
          "lat": 52.508499,
          "lng": 13.258442
        },
        {
          "id": "de:11000:900025321",
          "name": "S Olympiastadion (Berlin)",
          "lat": 52.511135,
          "lng": 13.241111
        }
      ]
    },
    {
      "id": "S7",
      "shortName": "S7",
      "longName": "S7",
      "color": "#816DA6",
      "textColor": "#FFFFFF",
      "mode": 1,
      "operator": "S-Bahn Berlin",
      "stations": [
        {
          "id": "de:11000:900170004",
          "name": "S Ahrensfelde Bhf (Berlin)",
          "lat": 52.571339,
          "lng": 13.565649
        },
        {
          "id": "de:11000:900170003",
          "name": "S Mehrower Allee (Berlin)",
          "lat": 52.557816,
          "lng": 13.554392
        },
        {
          "id": "de:11000:900170002",
          "name": "S Raoul-Wallenberg-Str. (Berlin)",
          "lat": 52.550749,
          "lng": 13.548392
        },
        {
          "id": "de:11000:900170001",
          "name": "S Marzahn (Berlin)",
          "lat": 52.543272,
          "lng": 13.541524
        },
        {
          "id": "de:11000:900170005",
          "name": "S Poelchaustr. (Berlin)",
          "lat": 52.534751,
          "lng": 13.536008
        },
        {
          "id": "de:11000:900171003",
          "name": "S Springpfuhl (Berlin)",
          "lat": 52.526147,
          "lng": 13.53687
        },
        {
          "id": "de:11000:900171002",
          "name": "S Friedrichsfelde Ost (Berlin)",
          "lat": 52.513531,
          "lng": 13.519078
        },
        {
          "id": "de:11000:900160004",
          "name": "S+U Lichtenberg Bhf (Berlin)",
          "lat": 52.510672,
          "lng": 13.498359
        },
        {
          "id": "de:11000:900160003",
          "name": "S Nöldnerplatz (Berlin)",
          "lat": 52.503444,
          "lng": 13.484297
        },
        {
          "id": "de:11000:900120003",
          "name": "S Ostkreuz Bhf (Berlin)",
          "lat": 52.503113,
          "lng": 13.469221
        },
        {
          "id": "de:11000:900120004",
          "name": "S+U Warschauer Str. (Berlin)",
          "lat": 52.505765,
          "lng": 13.449159
        },
        {
          "id": "de:11000:900120005",
          "name": "S Ostbahnhof (Berlin)",
          "lat": 52.510331,
          "lng": 13.435086
        },
        {
          "id": "de:11000:900100004",
          "name": "S+U Jannowitzbrücke (Berlin)",
          "lat": 52.5155,
          "lng": 13.418027
        },
        {
          "id": "de:11000:900100003",
          "name": "S+U Alexanderplatz Bhf (Berlin)",
          "lat": 52.521512,
          "lng": 13.411267
        },
        {
          "id": "de:11000:900100002",
          "name": "S Hackescher Markt (Berlin)",
          "lat": 52.522607,
          "lng": 13.402358
        },
        {
          "id": "de:11000:900100001",
          "name": "S+U Friedrichstr. Bhf (Berlin)",
          "lat": 52.520304,
          "lng": 13.387253
        },
        {
          "id": "de:11000:900003201",
          "name": "S+U Berlin Hauptbahnhof",
          "lat": 52.525605,
          "lng": 13.369075
        },
        {
          "id": "de:11000:900003102",
          "name": "S Bellevue (Berlin)",
          "lat": 52.519951,
          "lng": 13.347098
        },
        {
          "id": "de:11000:900003103",
          "name": "S Tiergarten (Berlin)",
          "lat": 52.513959,
          "lng": 13.336241
        },
        {
          "id": "de:11000:900023201",
          "name": "S+U Zoologischer Garten Bhf (Berlin)",
          "lat": 52.506921,
          "lng": 13.332707
        },
        {
          "id": "de:11000:900024203",
          "name": "S Savignyplatz (Berlin)",
          "lat": 52.505223,
          "lng": 13.319003
        },
        {
          "id": "de:11000:900024101",
          "name": "S Charlottenburg Bhf (Berlin)",
          "lat": 52.504732,
          "lng": 13.303862
        },
        {
          "id": "de:11000:900024102",
          "name": "S Westkreuz (Berlin)",
          "lat": 52.501152,
          "lng": 13.283036
        },
        {
          "id": "de:11000:900048101",
          "name": "S Grunewald (Berlin)",
          "lat": 52.48868,
          "lng": 13.261944
        },
        {
          "id": "de:11000:900052201",
          "name": "S Nikolassee (Berlin)",
          "lat": 52.43121,
          "lng": 13.193298
        },
        {
          "id": "de:11000:900053301",
          "name": "S Wannsee Bhf (Berlin)",
          "lat": 52.421725,
          "lng": 13.178932
        },
        {
          "id": "de:12054:900230003",
          "name": "S Griebnitzsee Bhf",
          "lat": 52.393945,
          "lng": 13.128808
        },
        {
          "id": "de:12054:900230000",
          "name": "S Babelsberg",
          "lat": 52.391449,
          "lng": 13.094634
        },
        {
          "id": "de:12054:900230999",
          "name": "S Potsdam Hauptbahnhof",
          "lat": 52.391447,
          "lng": 13.067157
        }
      ]
    },
    {
      "id": "S8",
      "shortName": "S8",
      "longName": "S8",
      "color": "#66AA22",
      "textColor": "#FFFFFF",
      "mode": 1,
      "operator": "S-Bahn Berlin",
      "stations": [
        {
          "id": "de:12065:900200005",
          "name": "S Oranienburg Bhf",
          "lat": 52.754487,
          "lng": 13.248311
        },
        {
          "id": "de:12065:900200006",
          "name": "S Lehnitz",
          "lat": 52.741393,
          "lng": 13.26328
        },
        {
          "id": "de:12065:900200007",
          "name": "S Borgsdorf",
          "lat": 52.714917,
          "lng": 13.276787
        },
        {
          "id": "de:12065:900200008",
          "name": "S Birkenwerder Bhf",
          "lat": 52.688576,
          "lng": 13.288846
        },
        {
          "id": "de:12065:900200009",
          "name": "S Hohen Neuendorf",
          "lat": 52.669496,
          "lng": 13.287166
        },
        {
          "id": "de:12065:900200011",
          "name": "S Bergfelde",
          "lat": 52.669695,
          "lng": 13.321455
        },
        {
          "id": "de:12065:900200012",
          "name": "S Schönfließ",
          "lat": 52.664592,
          "lng": 13.340511
        },
        {
          "id": "de:12065:900200013",
          "name": "S Mühlenbeck-Mönchmühle",
          "lat": 52.654321,
          "lng": 13.388063
        },
        {
          "id": "de:11000:900142001",
          "name": "S Blankenburg (Berlin)",
          "lat": 52.591069,
          "lng": 13.442972
        },
        {
          "id": "de:11000:900130001",
          "name": "S Pankow-Heinersdorf (Berlin)",
          "lat": 52.577603,
          "lng": 13.42909
        },
        {
          "id": "de:11000:900130002",
          "name": "S+U Pankow (Berlin)",
          "lat": 52.567281,
          "lng": 13.412279
        },
        {
          "id": "de:11000:900110011",
          "name": "S Bornholmer Str. (Berlin)",
          "lat": 52.554763,
          "lng": 13.397841
        },
        {
          "id": "de:11000:900110001",
          "name": "S+U Schönhauser Allee (Berlin)",
          "lat": 52.549336,
          "lng": 13.415138
        },
        {
          "id": "de:11000:900110002",
          "name": "S Prenzlauer Allee (Berlin)",
          "lat": 52.544802,
          "lng": 13.427419
        },
        {
          "id": "de:11000:900110003",
          "name": "S Greifswalder Str. (Berlin)",
          "lat": 52.540724,
          "lng": 13.438356
        },
        {
          "id": "de:11000:900110004",
          "name": "S Landsberger Allee (Berlin)",
          "lat": 52.528772,
          "lng": 13.455944
        },
        {
          "id": "de:11000:900110012",
          "name": "S Storkower Str. (Berlin)",
          "lat": 52.523868,
          "lng": 13.464704
        },
        {
          "id": "de:11000:900120001",
          "name": "S+U Frankfurter Allee (Berlin)",
          "lat": 52.51358,
          "lng": 13.475848
        },
        {
          "id": "de:11000:900120003",
          "name": "S Ostkreuz Bhf (Berlin)",
          "lat": 52.503113,
          "lng": 13.469221
        },
        {
          "id": "de:11000:900190001",
          "name": "S Treptower Park (Berlin)",
          "lat": 52.493832,
          "lng": 13.461825
        },
        {
          "id": "de:11000:900191002",
          "name": "S Plänterwald (Berlin)",
          "lat": 52.478722,
          "lng": 13.474029
        },
        {
          "id": "de:11000:900191001",
          "name": "S Baumschulenweg (Berlin)",
          "lat": 52.467581,
          "lng": 13.489505
        },
        {
          "id": "de:11000:900192001",
          "name": "S Schöneweide Bhf (Berlin)",
          "lat": 52.454611,
          "lng": 13.510149
        },
        {
          "id": "de:11000:900193001",
          "name": "S Johannisthal (Berlin)",
          "lat": 52.446695,
          "lng": 13.524028
        },
        {
          "id": "de:11000:900193002",
          "name": "S Adlershof (Berlin)",
          "lat": 52.435102,
          "lng": 13.540553
        },
        {
          "id": "de:11000:900186001",
          "name": "S Grünau (Berlin)",
          "lat": 52.412714,
          "lng": 13.574018
        },
        {
          "id": "de:12061:900260004",
          "name": "S Eichwalde",
          "lat": 52.3716,
          "lng": 13.614914
        },
        {
          "id": "de:12061:900260003",
          "name": "S Zeuthen",
          "lat": 52.349351,
          "lng": 13.627012
        },
        {
          "id": "de:12061:900260002",
          "name": "S Wildau",
          "lat": 52.319205,
          "lng": 13.633587
        }
      ]
    },
    {
      "id": "S9",
      "shortName": "S9",
      "longName": "S9",
      "color": "#992746",
      "textColor": "#FFFFFF",
      "mode": 1,
      "operator": "S-Bahn Berlin",
      "stations": [
        {
          "id": "de:12061:900260009",
          "name": "Flughafen BER",
          "lat": 52.364606,
          "lng": 13.509874
        },
        {
          "id": "de:12061:900260080",
          "name": "S Waßmannsdorf",
          "lat": 52.368283,
          "lng": 13.463432
        },
        {
          "id": "de:12061:900260005",
          "name": "S Schönefeld (bei Berlin)",
          "lat": 52.390906,
          "lng": 13.513046
        },
        {
          "id": "de:11000:900196001",
          "name": "S Grünbergallee (Berlin)",
          "lat": 52.399539,
          "lng": 13.543222
        },
        {
          "id": "de:11000:900195510",
          "name": "S Altglienicke (Berlin)",
          "lat": 52.407791,
          "lng": 13.559602
        },
        {
          "id": "de:11000:900193002",
          "name": "S Adlershof (Berlin)",
          "lat": 52.435102,
          "lng": 13.540553
        },
        {
          "id": "de:11000:900193001",
          "name": "S Johannisthal (Berlin)",
          "lat": 52.446695,
          "lng": 13.524028
        },
        {
          "id": "de:11000:900192001",
          "name": "S Schöneweide Bhf (Berlin)",
          "lat": 52.454611,
          "lng": 13.510149
        },
        {
          "id": "de:11000:900191001",
          "name": "S Baumschulenweg (Berlin)",
          "lat": 52.467581,
          "lng": 13.489505
        },
        {
          "id": "de:11000:900191002",
          "name": "S Plänterwald (Berlin)",
          "lat": 52.478722,
          "lng": 13.474029
        },
        {
          "id": "de:11000:900190001",
          "name": "S Treptower Park (Berlin)",
          "lat": 52.493832,
          "lng": 13.461825
        },
        {
          "id": "de:11000:900120004",
          "name": "S+U Warschauer Str. (Berlin)",
          "lat": 52.505765,
          "lng": 13.449159
        },
        {
          "id": "de:11000:900120005",
          "name": "S Ostbahnhof (Berlin)",
          "lat": 52.510331,
          "lng": 13.435086
        },
        {
          "id": "de:11000:900100004",
          "name": "S+U Jannowitzbrücke (Berlin)",
          "lat": 52.5155,
          "lng": 13.418027
        },
        {
          "id": "de:11000:900100003",
          "name": "S+U Alexanderplatz Bhf (Berlin)",
          "lat": 52.521512,
          "lng": 13.411267
        },
        {
          "id": "de:11000:900100002",
          "name": "S Hackescher Markt (Berlin)",
          "lat": 52.522607,
          "lng": 13.402358
        },
        {
          "id": "de:11000:900100001",
          "name": "S+U Friedrichstr. Bhf (Berlin)",
          "lat": 52.520304,
          "lng": 13.387253
        },
        {
          "id": "de:11000:900003201",
          "name": "S+U Berlin Hauptbahnhof",
          "lat": 52.525605,
          "lng": 13.369075
        },
        {
          "id": "de:11000:900003102",
          "name": "S Bellevue (Berlin)",
          "lat": 52.519951,
          "lng": 13.347098
        },
        {
          "id": "de:11000:900003103",
          "name": "S Tiergarten (Berlin)",
          "lat": 52.513959,
          "lng": 13.336241
        },
        {
          "id": "de:11000:900023201",
          "name": "S+U Zoologischer Garten Bhf (Berlin)",
          "lat": 52.506921,
          "lng": 13.332707
        },
        {
          "id": "de:11000:900024203",
          "name": "S Savignyplatz (Berlin)",
          "lat": 52.505223,
          "lng": 13.319003
        },
        {
          "id": "de:11000:900024101",
          "name": "S Charlottenburg Bhf (Berlin)",
          "lat": 52.504732,
          "lng": 13.303862
        },
        {
          "id": "de:11000:900024102",
          "name": "S Westkreuz (Berlin)",
          "lat": 52.501152,
          "lng": 13.283036
        },
        {
          "id": "de:11000:900025423",
          "name": "S Messe Süd (Berlin)",
          "lat": 52.498771,
          "lng": 13.27045
        },
        {
          "id": "de:11000:900026105",
          "name": "S Heerstr. (Berlin)",
          "lat": 52.508499,
          "lng": 13.258442
        },
        {
          "id": "de:11000:900025321",
          "name": "S Olympiastadion (Berlin)",
          "lat": 52.511135,
          "lng": 13.241111
        },
        {
          "id": "de:11000:900025424",
          "name": "S Pichelsberg (Berlin)",
          "lat": 52.509927,
          "lng": 13.228253
        },
        {
          "id": "de:11000:900030202",
          "name": "S Stresow (Berlin)",
          "lat": 52.53197,
          "lng": 13.209099
        },
        {
          "id": "de:11000:900029101",
          "name": "S Spandau Bhf (Berlin)",
          "lat": 52.534798,
          "lng": 13.197477
        }
      ]
    },
    {
      "id": "S25",
      "shortName": "S25",
      "longName": "S25",
      "color": "#007734",
      "textColor": "#FFFFFF",
      "mode": 1,
      "operator": "S-Bahn Berlin",
      "stations": [
        {
          "id": "de:12065:900200000",
          "name": "S Hennigsdorf Bhf",
          "lat": 52.637867,
          "lng": 13.205874
        },
        {
          "id": "de:11000:900091203",
          "name": "S Heiligensee (Berlin)",
          "lat": 52.625148,
          "lng": 13.228667
        },
        {
          "id": "de:11000:900091205",
          "name": "S Schulzendorf (Berlin)",
          "lat": 52.613513,
          "lng": 13.24563
        },
        {
          "id": "de:11000:900089303",
          "name": "S Tegel (Berlin)",
          "lat": 52.588805,
          "lng": 13.288695
        },
        {
          "id": "de:11000:900096405",
          "name": "S Eichborndamm (Berlin)",
          "lat": 52.577545,
          "lng": 13.315583
        },
        {
          "id": "de:11000:900096458",
          "name": "S+U Karl-Bonhoeffer-Nervenklinik (Berlin)",
          "lat": 52.578169,
          "lng": 13.332921
        },
        {
          "id": "de:11000:900085105",
          "name": "S Alt-Reinickendorf (Berlin)",
          "lat": 52.577939,
          "lng": 13.350747
        },
        {
          "id": "de:11000:900085201",
          "name": "S Schönholz (Berlin)",
          "lat": 52.571901,
          "lng": 13.380242
        },
        {
          "id": "de:11000:900130003",
          "name": "S Wollankstr. (Berlin)",
          "lat": 52.564974,
          "lng": 13.39315
        },
        {
          "id": "de:11000:900110011",
          "name": "S Bornholmer Str. (Berlin)",
          "lat": 52.554763,
          "lng": 13.397841
        },
        {
          "id": "de:11000:900007102",
          "name": "S+U Gesundbrunnen Bhf (Berlin)",
          "lat": 52.548637,
          "lng": 13.388372
        },
        {
          "id": "de:11000:900008101",
          "name": "S Humboldthain (Berlin)",
          "lat": 52.544738,
          "lng": 13.37873
        },
        {
          "id": "de:11000:900007104",
          "name": "S Nordbahnhof (Berlin)",
          "lat": 52.531672,
          "lng": 13.388798
        },
        {
          "id": "de:11000:900100007",
          "name": "S Oranienburger Str. (Berlin)",
          "lat": 52.525161,
          "lng": 13.393068
        },
        {
          "id": "de:11000:900100001",
          "name": "S+U Friedrichstr. Bhf (Berlin)",
          "lat": 52.520304,
          "lng": 13.387253
        },
        {
          "id": "de:11000:900100025",
          "name": "S+U Brandenburger Tor (Berlin)",
          "lat": 52.516511,
          "lng": 13.381937
        },
        {
          "id": "de:11000:900100020",
          "name": "S+U Potsdamer Platz Bhf (Berlin)",
          "lat": 52.509358,
          "lng": 13.376547
        },
        {
          "id": "de:11000:900012101",
          "name": "S Anhalter Bahnhof (Berlin)",
          "lat": 52.504538,
          "lng": 13.382077
        },
        {
          "id": "de:11000:900058103",
          "name": "S+U Yorckstr. (Berlin)",
          "lat": 52.492358,
          "lng": 13.372212
        },
        {
          "id": "de:11000:900058101",
          "name": "S Südkreuz Bhf (Berlin)",
          "lat": 52.475502,
          "lng": 13.365552
        },
        {
          "id": "de:11000:900058102",
          "name": "S Priesterweg (Berlin)",
          "lat": 52.459239,
          "lng": 13.356028
        },
        {
          "id": "de:11000:900063452",
          "name": "S Südende (Berlin)",
          "lat": 52.448899,
          "lng": 13.354077
        },
        {
          "id": "de:11000:900067221",
          "name": "S Lankwitz (Berlin)",
          "lat": 52.439034,
          "lng": 13.34276
        },
        {
          "id": "de:11000:900064301",
          "name": "S Lichterfelde Ost Bhf (Berlin)",
          "lat": 52.429294,
          "lng": 13.327749
        },
        {
          "id": "de:11000:900064256",
          "name": "S Osdorfer Str. (Berlin)",
          "lat": 52.418373,
          "lng": 13.313865
        },
        {
          "id": "de:11000:900064201",
          "name": "S Lichterfelde Süd (Berlin)",
          "lat": 52.409956,
          "lng": 13.308662
        },
        {
          "id": "de:12069:900220114",
          "name": "S Teltow Stadt",
          "lat": 52.39718,
          "lng": 13.276028
        }
      ]
    },
    {
      "id": "S26",
      "shortName": "S26",
      "longName": "S26",
      "color": "#007734",
      "textColor": "#FFFFFF",
      "mode": 1,
      "operator": "S-Bahn Berlin",
      "stations": [
        {
          "id": "de:12069:900220114",
          "name": "S Teltow Stadt",
          "lat": 52.39718,
          "lng": 13.276028
        },
        {
          "id": "de:11000:900064201",
          "name": "S Lichterfelde Süd (Berlin)",
          "lat": 52.409956,
          "lng": 13.308662
        },
        {
          "id": "de:11000:900064256",
          "name": "S Osdorfer Str. (Berlin)",
          "lat": 52.418373,
          "lng": 13.313865
        },
        {
          "id": "de:11000:900064301",
          "name": "S Lichterfelde Ost Bhf (Berlin)",
          "lat": 52.429294,
          "lng": 13.327749
        },
        {
          "id": "de:11000:900067221",
          "name": "S Lankwitz (Berlin)",
          "lat": 52.439034,
          "lng": 13.34276
        },
        {
          "id": "de:11000:900063452",
          "name": "S Südende (Berlin)",
          "lat": 52.448899,
          "lng": 13.354077
        },
        {
          "id": "de:11000:900058102",
          "name": "S Priesterweg (Berlin)",
          "lat": 52.459239,
          "lng": 13.356028
        },
        {
          "id": "de:11000:900058101",
          "name": "S Südkreuz Bhf (Berlin)",
          "lat": 52.475502,
          "lng": 13.365552
        },
        {
          "id": "de:11000:900058103",
          "name": "S+U Yorckstr. (Berlin)",
          "lat": 52.492358,
          "lng": 13.372212
        },
        {
          "id": "de:11000:900012101",
          "name": "S Anhalter Bahnhof (Berlin)",
          "lat": 52.504538,
          "lng": 13.382077
        },
        {
          "id": "de:11000:900100020",
          "name": "S+U Potsdamer Platz Bhf (Berlin)",
          "lat": 52.509358,
          "lng": 13.376547
        },
        {
          "id": "de:11000:900100025",
          "name": "S+U Brandenburger Tor (Berlin)",
          "lat": 52.516511,
          "lng": 13.381937
        },
        {
          "id": "de:11000:900100001",
          "name": "S+U Friedrichstr. Bhf (Berlin)",
          "lat": 52.520304,
          "lng": 13.387253
        },
        {
          "id": "de:11000:900100007",
          "name": "S Oranienburger Str. (Berlin)",
          "lat": 52.525161,
          "lng": 13.393068
        },
        {
          "id": "de:11000:900007104",
          "name": "S Nordbahnhof (Berlin)",
          "lat": 52.531672,
          "lng": 13.388798
        },
        {
          "id": "de:11000:900008101",
          "name": "S Humboldthain (Berlin)",
          "lat": 52.544738,
          "lng": 13.37873
        },
        {
          "id": "de:11000:900007102",
          "name": "S+U Gesundbrunnen Bhf (Berlin)",
          "lat": 52.548637,
          "lng": 13.388372
        },
        {
          "id": "de:11000:900110011",
          "name": "S Bornholmer Str. (Berlin)",
          "lat": 52.554763,
          "lng": 13.397841
        },
        {
          "id": "de:11000:900085201",
          "name": "S Schönholz (Berlin)",
          "lat": 52.571901,
          "lng": 13.380242
        },
        {
          "id": "de:11000:900084101",
          "name": "S Wilhelmsruh (Berlin)",
          "lat": 52.581389,
          "lng": 13.362938
        },
        {
          "id": "de:11000:900096101",
          "name": "S+U Wittenau (Berlin)",
          "lat": 52.596392,
          "lng": 13.335481
        },
        {
          "id": "de:11000:900094101",
          "name": "S Waidmannslust (Berlin)",
          "lat": 52.606814,
          "lng": 13.320549
        }
      ]
    },
    {
      "id": "S41",
      "shortName": "S41",
      "longName": "S41",
      "color": "#AD5937",
      "textColor": "#FFFFFF",
      "mode": 1,
      "operator": "S-Bahn Berlin",
      "stations": [
        {
          "id": "de:11000:900020202",
          "name": "S Beusselstr. (Berlin)",
          "lat": 52.534314,
          "lng": 13.328703
        },
        {
          "id": "de:11000:900001201",
          "name": "S+U Westhafen (Berlin)",
          "lat": 52.536183,
          "lng": 13.343837
        },
        {
          "id": "de:11000:900009104",
          "name": "S+U Wedding (Berlin)",
          "lat": 52.542732,
          "lng": 13.36606
        },
        {
          "id": "de:11000:900007102",
          "name": "S+U Gesundbrunnen Bhf (Berlin)",
          "lat": 52.548637,
          "lng": 13.388372
        },
        {
          "id": "de:11000:900110001",
          "name": "S+U Schönhauser Allee (Berlin)",
          "lat": 52.549336,
          "lng": 13.415138
        },
        {
          "id": "de:11000:900110002",
          "name": "S Prenzlauer Allee (Berlin)",
          "lat": 52.544802,
          "lng": 13.427419
        },
        {
          "id": "de:11000:900110003",
          "name": "S Greifswalder Str. (Berlin)",
          "lat": 52.540724,
          "lng": 13.438356
        },
        {
          "id": "de:11000:900110004",
          "name": "S Landsberger Allee (Berlin)",
          "lat": 52.528772,
          "lng": 13.455944
        },
        {
          "id": "de:11000:900110012",
          "name": "S Storkower Str. (Berlin)",
          "lat": 52.523868,
          "lng": 13.464704
        },
        {
          "id": "de:11000:900120001",
          "name": "S+U Frankfurter Allee (Berlin)",
          "lat": 52.51358,
          "lng": 13.475848
        },
        {
          "id": "de:11000:900120003",
          "name": "S Ostkreuz Bhf (Berlin)",
          "lat": 52.503113,
          "lng": 13.469221
        },
        {
          "id": "de:11000:900190001",
          "name": "S Treptower Park (Berlin)",
          "lat": 52.493832,
          "lng": 13.461825
        },
        {
          "id": "de:11000:900077106",
          "name": "S Sonnenallee (Berlin)",
          "lat": 52.473843,
          "lng": 13.455986
        },
        {
          "id": "de:11000:900078201",
          "name": "S+U Neukölln (Berlin)",
          "lat": 52.469282,
          "lng": 13.443692
        },
        {
          "id": "de:11000:900079221",
          "name": "S+U Hermannstr. (Berlin)",
          "lat": 52.467181,
          "lng": 13.431704
        },
        {
          "id": "de:11000:900068201",
          "name": "S+U Tempelhof (Berlin)",
          "lat": 52.470574,
          "lng": 13.3859
        },
        {
          "id": "de:11000:900058101",
          "name": "S Südkreuz Bhf (Berlin)",
          "lat": 52.475502,
          "lng": 13.365552
        },
        {
          "id": "de:11000:900054104",
          "name": "S Schöneberg (Berlin)",
          "lat": 52.479811,
          "lng": 13.352848
        },
        {
          "id": "de:11000:900054105",
          "name": "S+U Innsbrucker Platz (Berlin)",
          "lat": 52.4781,
          "lng": 13.342875
        },
        {
          "id": "de:11000:900044202",
          "name": "S+U Bundesplatz (Berlin)",
          "lat": 52.477667,
          "lng": 13.328626
        },
        {
          "id": "de:11000:900045102",
          "name": "S+U Heidelberger Platz (Berlin)",
          "lat": 52.480124,
          "lng": 13.31229
        },
        {
          "id": "de:11000:900044101",
          "name": "S Hohenzollerndamm (Berlin)",
          "lat": 52.488337,
          "lng": 13.300714
        },
        {
          "id": "de:11000:900040101",
          "name": "S Halensee (Berlin)",
          "lat": 52.496698,
          "lng": 13.290151
        },
        {
          "id": "de:11000:900024102",
          "name": "S Westkreuz (Berlin)",
          "lat": 52.501152,
          "lng": 13.283036
        },
        {
          "id": "de:11000:900024106",
          "name": "S Messe Nord/ZOB (Berlin)",
          "lat": 52.506622,
          "lng": 13.282884
        },
        {
          "id": "de:11000:900026207",
          "name": "S Westend (Berlin)",
          "lat": 52.51861,
          "lng": 13.284237
        },
        {
          "id": "de:11000:900020201",
          "name": "S+U Jungfernheide Bhf (Berlin)",
          "lat": 52.530452,
          "lng": 13.300124
        },
        {
          "id": "de:11000:900020202",
          "name": "S Beusselstr. (Berlin)",
          "lat": 52.534314,
          "lng": 13.328703
        }
      ]
    },
    {
      "id": "S42",
      "shortName": "S42",
      "longName": "S42",
      "color": "#CB6418",
      "textColor": "#FFFFFF",
      "mode": 1,
      "operator": "S-Bahn Berlin",
      "stations": [
        {
          "id": "de:11000:900020202",
          "name": "S Beusselstr. (Berlin)",
          "lat": 52.534314,
          "lng": 13.328703
        },
        {
          "id": "de:11000:900020201",
          "name": "S+U Jungfernheide Bhf (Berlin)",
          "lat": 52.530452,
          "lng": 13.300124
        },
        {
          "id": "de:11000:900026207",
          "name": "S Westend (Berlin)",
          "lat": 52.51861,
          "lng": 13.284237
        },
        {
          "id": "de:11000:900024106",
          "name": "S Messe Nord/ZOB (Berlin)",
          "lat": 52.506622,
          "lng": 13.282884
        },
        {
          "id": "de:11000:900024102",
          "name": "S Westkreuz (Berlin)",
          "lat": 52.501152,
          "lng": 13.283036
        },
        {
          "id": "de:11000:900040101",
          "name": "S Halensee (Berlin)",
          "lat": 52.496698,
          "lng": 13.290151
        },
        {
          "id": "de:11000:900044101",
          "name": "S Hohenzollerndamm (Berlin)",
          "lat": 52.488337,
          "lng": 13.300714
        },
        {
          "id": "de:11000:900045102",
          "name": "S+U Heidelberger Platz (Berlin)",
          "lat": 52.480124,
          "lng": 13.31229
        },
        {
          "id": "de:11000:900044202",
          "name": "S+U Bundesplatz (Berlin)",
          "lat": 52.477667,
          "lng": 13.328626
        },
        {
          "id": "de:11000:900054105",
          "name": "S+U Innsbrucker Platz (Berlin)",
          "lat": 52.4781,
          "lng": 13.342875
        },
        {
          "id": "de:11000:900054104",
          "name": "S Schöneberg (Berlin)",
          "lat": 52.479811,
          "lng": 13.352848
        },
        {
          "id": "de:11000:900058101",
          "name": "S Südkreuz Bhf (Berlin)",
          "lat": 52.475502,
          "lng": 13.365552
        },
        {
          "id": "de:11000:900068201",
          "name": "S+U Tempelhof (Berlin)",
          "lat": 52.470574,
          "lng": 13.3859
        },
        {
          "id": "de:11000:900079221",
          "name": "S+U Hermannstr. (Berlin)",
          "lat": 52.467181,
          "lng": 13.431704
        },
        {
          "id": "de:11000:900078201",
          "name": "S+U Neukölln (Berlin)",
          "lat": 52.469282,
          "lng": 13.443692
        },
        {
          "id": "de:11000:900077106",
          "name": "S Sonnenallee (Berlin)",
          "lat": 52.473843,
          "lng": 13.455986
        },
        {
          "id": "de:11000:900190001",
          "name": "S Treptower Park (Berlin)",
          "lat": 52.493832,
          "lng": 13.461825
        },
        {
          "id": "de:11000:900120003",
          "name": "S Ostkreuz Bhf (Berlin)",
          "lat": 52.503113,
          "lng": 13.469221
        },
        {
          "id": "de:11000:900120001",
          "name": "S+U Frankfurter Allee (Berlin)",
          "lat": 52.51358,
          "lng": 13.475848
        },
        {
          "id": "de:11000:900110012",
          "name": "S Storkower Str. (Berlin)",
          "lat": 52.523868,
          "lng": 13.464704
        },
        {
          "id": "de:11000:900110004",
          "name": "S Landsberger Allee (Berlin)",
          "lat": 52.528772,
          "lng": 13.455944
        },
        {
          "id": "de:11000:900110003",
          "name": "S Greifswalder Str. (Berlin)",
          "lat": 52.540724,
          "lng": 13.438356
        },
        {
          "id": "de:11000:900110002",
          "name": "S Prenzlauer Allee (Berlin)",
          "lat": 52.544802,
          "lng": 13.427419
        },
        {
          "id": "de:11000:900110001",
          "name": "S+U Schönhauser Allee (Berlin)",
          "lat": 52.549336,
          "lng": 13.415138
        },
        {
          "id": "de:11000:900007102",
          "name": "S+U Gesundbrunnen Bhf (Berlin)",
          "lat": 52.548637,
          "lng": 13.388372
        },
        {
          "id": "de:11000:900009104",
          "name": "S+U Wedding (Berlin)",
          "lat": 52.542732,
          "lng": 13.36606
        },
        {
          "id": "de:11000:900001201",
          "name": "S+U Westhafen (Berlin)",
          "lat": 52.536183,
          "lng": 13.343837
        },
        {
          "id": "de:11000:900020202",
          "name": "S Beusselstr. (Berlin)",
          "lat": 52.534314,
          "lng": 13.328703
        }
      ]
    },
    {
      "id": "S46",
      "shortName": "S46",
      "longName": "S46",
      "color": "#CD9C53",
      "textColor": "#FFFFFF",
      "mode": 1,
      "operator": "S-Bahn Berlin",
      "stations": [
        {
          "id": "de:12061:900260001",
          "name": "S Königs Wusterhausen Bhf",
          "lat": 52.296963,
          "lng": 13.631305
        },
        {
          "id": "de:12061:900260002",
          "name": "S Wildau",
          "lat": 52.319205,
          "lng": 13.633587
        },
        {
          "id": "de:12061:900260003",
          "name": "S Zeuthen",
          "lat": 52.349351,
          "lng": 13.627012
        },
        {
          "id": "de:12061:900260004",
          "name": "S Eichwalde",
          "lat": 52.3716,
          "lng": 13.614914
        },
        {
          "id": "de:11000:900186001",
          "name": "S Grünau (Berlin)",
          "lat": 52.412714,
          "lng": 13.574018
        },
        {
          "id": "de:11000:900193002",
          "name": "S Adlershof (Berlin)",
          "lat": 52.435102,
          "lng": 13.540553
        },
        {
          "id": "de:11000:900193001",
          "name": "S Johannisthal (Berlin)",
          "lat": 52.446695,
          "lng": 13.524028
        },
        {
          "id": "de:11000:900192001",
          "name": "S Schöneweide Bhf (Berlin)",
          "lat": 52.454611,
          "lng": 13.510149
        },
        {
          "id": "de:11000:900191001",
          "name": "S Baumschulenweg (Berlin)",
          "lat": 52.467581,
          "lng": 13.489505
        },
        {
          "id": "de:11000:900077155",
          "name": "S Köllnische Heide (Berlin)",
          "lat": 52.469168,
          "lng": 13.467529
        },
        {
          "id": "de:11000:900078201",
          "name": "S+U Neukölln (Berlin)",
          "lat": 52.469282,
          "lng": 13.443692
        },
        {
          "id": "de:11000:900079221",
          "name": "S+U Hermannstr. (Berlin)",
          "lat": 52.467181,
          "lng": 13.431704
        },
        {
          "id": "de:11000:900068201",
          "name": "S+U Tempelhof (Berlin)",
          "lat": 52.470574,
          "lng": 13.3859
        },
        {
          "id": "de:11000:900058101",
          "name": "S Südkreuz Bhf (Berlin)",
          "lat": 52.475502,
          "lng": 13.365552
        },
        {
          "id": "de:11000:900054104",
          "name": "S Schöneberg (Berlin)",
          "lat": 52.479811,
          "lng": 13.352848
        },
        {
          "id": "de:11000:900054105",
          "name": "S+U Innsbrucker Platz (Berlin)",
          "lat": 52.4781,
          "lng": 13.342875
        },
        {
          "id": "de:11000:900044202",
          "name": "S+U Bundesplatz (Berlin)",
          "lat": 52.477667,
          "lng": 13.328626
        },
        {
          "id": "de:11000:900045102",
          "name": "S+U Heidelberger Platz (Berlin)",
          "lat": 52.480124,
          "lng": 13.31229
        },
        {
          "id": "de:11000:900044101",
          "name": "S Hohenzollerndamm (Berlin)",
          "lat": 52.488337,
          "lng": 13.300714
        },
        {
          "id": "de:11000:900040101",
          "name": "S Halensee (Berlin)",
          "lat": 52.496698,
          "lng": 13.290151
        },
        {
          "id": "de:11000:900024102",
          "name": "S Westkreuz (Berlin)",
          "lat": 52.501152,
          "lng": 13.283036
        },
        {
          "id": "de:11000:900024106",
          "name": "S Messe Nord/ZOB (Berlin)",
          "lat": 52.506622,
          "lng": 13.282884
        },
        {
          "id": "de:11000:900026207",
          "name": "S Westend (Berlin)",
          "lat": 52.51861,
          "lng": 13.284237
        }
      ]
    },
    {
      "id": "S47",
      "shortName": "S47",
      "longName": "S47",
      "color": "#666666",
      "textColor": "#FFFFFF",
      "mode": 1,
      "operator": "S-Bahn Berlin",
      "stations": [
        {
          "id": "de:11000:900191001",
          "name": "S Baumschulenweg (Berlin)",
          "lat": 52.467581,
          "lng": 13.489505
        },
        {
          "id": "de:11000:900077155",
          "name": "S Köllnische Heide (Berlin)",
          "lat": 52.469168,
          "lng": 13.467529
        },
        {
          "id": "de:11000:900078201",
          "name": "S+U Neukölln (Berlin)",
          "lat": 52.469282,
          "lng": 13.443692
        },
        {
          "id": "de:11000:900079221",
          "name": "S+U Hermannstr. (Berlin)",
          "lat": 52.467181,
          "lng": 13.431704
        },
        {
          "id": "de:11000:900068201",
          "name": "S+U Tempelhof (Berlin)",
          "lat": 52.470574,
          "lng": 13.3859
        },
        {
          "id": "de:11000:900058101",
          "name": "S Südkreuz Bhf (Berlin)",
          "lat": 52.475502,
          "lng": 13.365552
        },
        {
          "id": "de:11000:900054104",
          "name": "S Schöneberg (Berlin)",
          "lat": 52.479811,
          "lng": 13.352848
        },
        {
          "id": "de:11000:900054105",
          "name": "S+U Innsbrucker Platz (Berlin)",
          "lat": 52.4781,
          "lng": 13.342875
        },
        {
          "id": "de:11000:900044202",
          "name": "S+U Bundesplatz (Berlin)",
          "lat": 52.477667,
          "lng": 13.328626
        },
        {
          "id": "de:11000:900045102",
          "name": "S+U Heidelberger Platz (Berlin)",
          "lat": 52.480124,
          "lng": 13.31229
        },
        {
          "id": "de:11000:900044101",
          "name": "S Hohenzollerndamm (Berlin)",
          "lat": 52.488337,
          "lng": 13.300714
        },
        {
          "id": "de:11000:900040101",
          "name": "S Halensee (Berlin)",
          "lat": 52.496698,
          "lng": 13.290151
        },
        {
          "id": "de:11000:900024102",
          "name": "S Westkreuz (Berlin)",
          "lat": 52.501152,
          "lng": 13.283036
        },
        {
          "id": "de:11000:900024106",
          "name": "S Messe Nord/ZOB (Berlin)",
          "lat": 52.506622,
          "lng": 13.282884
        },
        {
          "id": "de:11000:900026207",
          "name": "S Westend (Berlin)",
          "lat": 52.51861,
          "lng": 13.284237
        }
      ]
    },
    {
      "id": "S75",
      "shortName": "S75",
      "longName": "S75",
      "color": "#816DA6",
      "textColor": "#FFFFFF",
      "mode": 1,
      "operator": "S-Bahn Berlin",
      "stations": [
        {
          "id": "de:11000:900120005",
          "name": "S Ostbahnhof (Berlin)",
          "lat": 52.510331,
          "lng": 13.435086
        },
        {
          "id": "de:11000:900120004",
          "name": "S+U Warschauer Str. (Berlin)",
          "lat": 52.505765,
          "lng": 13.449159
        },
        {
          "id": "de:11000:900120003",
          "name": "S Ostkreuz Bhf (Berlin)",
          "lat": 52.503113,
          "lng": 13.469221
        },
        {
          "id": "de:11000:900160003",
          "name": "S Nöldnerplatz (Berlin)",
          "lat": 52.503444,
          "lng": 13.484297
        },
        {
          "id": "de:11000:900160004",
          "name": "S+U Lichtenberg Bhf (Berlin)",
          "lat": 52.510672,
          "lng": 13.498359
        },
        {
          "id": "de:11000:900171002",
          "name": "S Friedrichsfelde Ost (Berlin)",
          "lat": 52.513531,
          "lng": 13.519078
        },
        {
          "id": "de:11000:900171003",
          "name": "S Springpfuhl (Berlin)",
          "lat": 52.526147,
          "lng": 13.53687
        },
        {
          "id": "de:11000:900152002",
          "name": "S Gehrenseestr. (Berlin)",
          "lat": 52.555736,
          "lng": 13.525653
        },
        {
          "id": "de:11000:900152001",
          "name": "S Hohenschönhausen Bhf (Berlin)",
          "lat": 52.565637,
          "lng": 13.51232
        },
        {
          "id": "de:11000:900151001",
          "name": "S Wartenberg (Berlin)",
          "lat": 52.573266,
          "lng": 13.504238
        }
      ]
    },
    {
      "id": "S85",
      "shortName": "S85",
      "longName": "S85",
      "color": "#66AA22",
      "textColor": "#FFFFFF",
      "mode": 1,
      "operator": "S-Bahn Berlin",
      "stations": [
        {
          "id": "de:11000:900092201",
          "name": "S Frohnau (Berlin)",
          "lat": 52.632958,
          "lng": 13.289564
        },
        {
          "id": "de:11000:900093201",
          "name": "S Hermsdorf (Berlin)",
          "lat": 52.618165,
          "lng": 13.306804
        },
        {
          "id": "de:11000:900094101",
          "name": "S Waidmannslust (Berlin)",
          "lat": 52.606814,
          "lng": 13.320549
        },
        {
          "id": "de:11000:900096101",
          "name": "S+U Wittenau (Berlin)",
          "lat": 52.596392,
          "lng": 13.335481
        },
        {
          "id": "de:11000:900084101",
          "name": "S Wilhelmsruh (Berlin)",
          "lat": 52.581389,
          "lng": 13.362938
        },
        {
          "id": "de:11000:900085201",
          "name": "S Schönholz (Berlin)",
          "lat": 52.571901,
          "lng": 13.380242
        },
        {
          "id": "de:11000:900130003",
          "name": "S Wollankstr. (Berlin)",
          "lat": 52.564974,
          "lng": 13.39315
        },
        {
          "id": "de:11000:900110011",
          "name": "S Bornholmer Str. (Berlin)",
          "lat": 52.554763,
          "lng": 13.397841
        },
        {
          "id": "de:11000:900110001",
          "name": "S+U Schönhauser Allee (Berlin)",
          "lat": 52.549336,
          "lng": 13.415138
        },
        {
          "id": "de:11000:900110002",
          "name": "S Prenzlauer Allee (Berlin)",
          "lat": 52.544802,
          "lng": 13.427419
        },
        {
          "id": "de:11000:900110003",
          "name": "S Greifswalder Str. (Berlin)",
          "lat": 52.540724,
          "lng": 13.438356
        },
        {
          "id": "de:11000:900110004",
          "name": "S Landsberger Allee (Berlin)",
          "lat": 52.528772,
          "lng": 13.455944
        },
        {
          "id": "de:11000:900110012",
          "name": "S Storkower Str. (Berlin)",
          "lat": 52.523868,
          "lng": 13.464704
        },
        {
          "id": "de:11000:900120001",
          "name": "S+U Frankfurter Allee (Berlin)",
          "lat": 52.51358,
          "lng": 13.475848
        },
        {
          "id": "de:11000:900120003",
          "name": "S Ostkreuz Bhf (Berlin)",
          "lat": 52.503113,
          "lng": 13.469221
        },
        {
          "id": "de:11000:900190001",
          "name": "S Treptower Park (Berlin)",
          "lat": 52.493832,
          "lng": 13.461825
        },
        {
          "id": "de:11000:900191002",
          "name": "S Plänterwald (Berlin)",
          "lat": 52.478722,
          "lng": 13.474029
        },
        {
          "id": "de:11000:900191001",
          "name": "S Baumschulenweg (Berlin)",
          "lat": 52.467581,
          "lng": 13.489505
        },
        {
          "id": "de:11000:900192001",
          "name": "S Schöneweide Bhf (Berlin)",
          "lat": 52.454611,
          "lng": 13.510149
        },