{
  "city": "London",
  "operator": "Transport for London",
  "generatedAt": "2026-04-26T16:24:28Z",
  "source": "TfL Line API",
  "lines": [
    {
      "id": "BAK",
      "shortName": "BAK",
      "longName": "Bakerloo",
      "color": "#B36305",
      "textColor": "#FFFFFF",
      "mode": 1,
      "operator": "London Underground",
      "stations": [
        {
          "id": "940GZZLUBST",
          "name": "Baker Street",
          "lat": 51.522883,
          "lng": -0.15713
        },
        {
          "id": "940GZZLUEMB",
          "name": "Embankment",
          "lat": 51.507058,
          "lng": -0.122666
        },
        {
          "id": "940GZZLUERB",
          "name": "Edgware Road (Bakerloo)",
          "lat": 51.520299,
          "lng": -0.17015
        },
        {
          "id": "940GZZLUKPK",
          "name": "Kilburn Park",
          "lat": 51.534979,
          "lng": -0.194232
        },
        {
          "id": "940GZZLULBN",
          "name": "Lambeth North",
          "lat": 51.498808,
          "lng": -0.112315
        },
        {
          "id": "940GZZLUMVL",
          "name": "Maida Vale",
          "lat": 51.529777,
          "lng": -0.185758
        },
        {
          "id": "940GZZLUOXC",
          "name": "Oxford Circus",
          "lat": 51.515224,
          "lng": -0.141903
        },
        {
          "id": "940GZZLUPCC",
          "name": "Piccadilly Circus",
          "lat": 51.51005,
          "lng": -0.133798
        },
        {
          "id": "940GZZLURGP",
          "name": "Regent's Park",
          "lat": 51.523344,
          "lng": -0.146444
        },
        {
          "id": "940GZZLUWKA",
          "name": "Warwick Avenue",
          "lat": 51.523263,
          "lng": -0.183783
        },
        {
          "id": "HUBCHX",
          "name": "Charing Cross",
          "lat": 51.507819,
          "lng": -0.126137
        },
        {
          "id": "HUBEPH",
          "name": "Elephant & Castle",
          "lat": 51.494505,
          "lng": -0.099185
        },
        {
          "id": "HUBHDN",
          "name": "Harlesden",
          "lat": 51.536305,
          "lng": -0.257774
        },
        {
          "id": "HUBHRW",
          "name": "Harrow & Wealdstone",
          "lat": 51.592216,
          "lng": -0.334896
        },
        {
          "id": "HUBKNL",
          "name": "Kensal Green",
          "lat": 51.530545,
          "lng": -0.22505
        },
        {
          "id": "HUBKNT",
          "name": "Kenton",
          "lat": 51.581786,
          "lng": -0.316946
        },
        {
          "id": "HUBMYB",
          "name": "Marylebone",
          "lat": 51.521602,
          "lng": -0.163013
        },
        {
          "id": "HUBNWB",
          "name": "North Wembley",
          "lat": 51.56258,
          "lng": -0.303992
        },
        {
          "id": "HUBPAD",
          "name": "Paddington",
          "lat": 51.516981,
          "lng": -0.17616
        },
        {
          "id": "HUBQPW",
          "name": "Queen's Park",
          "lat": 51.534443,
          "lng": -0.204882
        },
        {
          "id": "HUBSBP",
          "name": "Stonebridge Park",
          "lat": 51.544041,
          "lng": -0.275859
        },
        {
          "id": "HUBSOK",
          "name": "South Kenton",
          "lat": 51.570229,
          "lng": -0.308448
        },
        {
          "id": "HUBWAT",
          "name": "Waterloo",
          "lat": 51.504269,
          "lng": -0.113356
        },
        {
          "id": "HUBWIJ",
          "name": "Willesden Junction",
          "lat": 51.532556,
          "lng": -0.243006
        },
        {
          "id": "HUBWMB",
          "name": "Wembley Central",
          "lat": 51.55232,
          "lng": -0.296642
        }
      ]
    },
    {
      "id": "CEN",
      "shortName": "CEN",
      "longName": "Central",
      "color": "#E32017",
      "textColor": "#FFFFFF",
      "mode": 1,
      "operator": "London Underground",
      "stations": [
        {
          "id": "940GZZLUBKE",
          "name": "Barkingside",
          "lat": 51.585689,
          "lng": 0.088585
        },
        {
          "id": "940GZZLUBKH",
          "name": "Buckhurst Hill",
          "lat": 51.626605,
          "lng": 0.046757
        },
        {
          "id": "940GZZLUBLG",
          "name": "Bethnal Green",
          "lat": 51.527222,
          "lng": -0.055506
        },
        {
          "id": "940GZZLUCHL",
          "name": "Chancery Lane",
          "lat": 51.518247,
          "lng": -0.111583
        },
        {
          "id": "940GZZLUCWL",
          "name": "Chigwell",
          "lat": 51.617916,
          "lng": 0.075041
        },
        {
          "id": "940GZZLUDBN",
          "name": "Debden",
          "lat": 51.645386,
          "lng": 0.083782
        },
        {
          "id": "940GZZLUEAN",
          "name": "East Acton",
          "lat": 51.516612,
          "lng": -0.247248
        },
        {
          "id": "940GZZLUEPG",
          "name": "Epping",
          "lat": 51.69368,
          "lng": 0.113767
        },
        {
          "id": "940GZZLUFLP",
          "name": "Fairlop",
          "lat": 51.595618,
          "lng": 0.091004
        },
        {
          "id": "940GZZLUGGH",
          "name": "Grange Hill",
          "lat": 51.613378,
          "lng": 0.092066
        },
        {
          "id": "940GZZLUGTH",
          "name": "Gants Hill",
          "lat": 51.576544,
          "lng": 0.066185
        },
        {
          "id": "940GZZLUHBN",
          "name": "Holborn",
          "lat": 51.51758,
          "lng": -0.120475
        },
        {
          "id": "940GZZLUHGR",
          "name": "Hanger Lane",
          "lat": 51.530177,
          "lng": -0.292704
        },
        {
          "id": "940GZZLUHLT",
          "name": "Hainault",
          "lat": 51.603659,
          "lng": 0.093482
        },
        {
          "id": "940GZZLUHPK",
          "name": "Holland Park",
          "lat": 51.507143,
          "lng": -0.205679
        },
        {
          "id": "940GZZLULGN",
          "name": "Loughton",
          "lat": 51.641443,
          "lng": 0.055476
        },
        {
          "id": "940GZZLULGT",
          "name": "Lancaster Gate",
          "lat": 51.511723,
          "lng": -0.175494
        },
        {
          "id": "940GZZLULYN",
          "name": "Leyton",
          "lat": 51.556589,
          "lng": -0.005523
        },
        {
          "id": "940GZZLULYS",
          "name": "Leytonstone",
          "lat": 51.568324,
          "lng": 0.008194
        },
        {
          "id": "940GZZLUMBA",
          "name": "Marble Arch",
          "lat": 51.513424,
          "lng": -0.158953
        },
        {
          "id": "940GZZLUMED",
          "name": "Mile End",
          "lat": 51.525122,
          "lng": -0.03364
        },
        {
          "id": "940GZZLUNAN",
          "name": "North Acton",
          "lat": 51.523524,
          "lng": -0.259755
        },
        {
          "id": "940GZZLUNBP",
          "name": "Newbury Park",
          "lat": 51.575726,
          "lng": 0.090004
        },
        {
          "id": "940GZZLUNHG",
          "name": "Notting Hill Gate",
          "lat": 51.509128,
          "lng": -0.196104
        },
        {
          "id": "940GZZLUNHT",
          "name": "Northolt",
          "lat": 51.548236,
          "lng": -0.368699
        },
        {
          "id": "940GZZLUOXC",
          "name": "Oxford Circus",
          "lat": 51.515224,
          "lng": -0.141903
        },
        {
          "id": "940GZZLUPVL",
          "name": "Perivale",
          "lat": 51.536717,
          "lng": -0.323446
        },
        {
          "id": "940GZZLUQWY",
          "name": "Queensway",
          "lat": 51.510312,
          "lng": -0.187152
        },
        {
          "id": "940GZZLURBG",
          "name": "Redbridge",
          "lat": 51.576243,
          "lng": 0.04536
        },
        {
          "id": "940GZZLURSG",
          "name": "Ruislip Gardens",
          "lat": 51.560736,
          "lng": -0.41071
        },
        {
          "id": "940GZZLURVY",
          "name": "Roding Valley",
          "lat": 51.617199,
          "lng": 0.043647
        },
        {
          "id": "940GZZLUSNB",
          "name": "Snaresbrook",
          "lat": 51.580678,
          "lng": 0.02144
        },
        {
          "id": "940GZZLUSPU",
          "name": "St. Paul's",
          "lat": 51.514936,
          "lng": -0.097567
        },
        {
          "id": "940GZZLUSWF",
          "name": "South Woodford",
          "lat": 51.591907,
          "lng": 0.027338
        },
        {
          "id": "940GZZLUTHB",
          "name": "Theydon Bois",
          "lat": 51.671759,
          "lng": 0.103085
        },
        {
          "id": "940GZZLUWCY",
          "name": "White City",
          "lat": 51.511959,
          "lng": -0.224297
        },
        {
          "id": "940GZZLUWOF",
          "name": "Woodford",
          "lat": 51.606899,
          "lng": 0.03397
        },
        {
          "id": "940GZZLUWSD",
          "name": "Wanstead",
          "lat": 51.575501,
          "lng": 0.028527
        },
        {
          "id": "940GZZLUWTA",
          "name": "West Acton",
          "lat": 51.518001,
          "lng": -0.28098
        },
        {
          "id": "HUBBAN",
          "name": "Bank",
          "lat": 51.513395,
          "lng": -0.089095
        },
        {
          "id": "HUBBDS",
          "name": "Bond Street",
          "lat": 51.513362,
          "lng": -0.148795
        },
        {
          "id": "HUBEAL",
          "name": "Ealing Broadway",
          "lat": 51.514993,
          "lng": -0.302131
        },
        {
          "id": "HUBGFD",
          "name": "Greenford",
          "lat": 51.542657,
          "lng": -0.345789
        },
        {
          "id": "HUBLST",
          "name": "Liverpool Street",
          "lat": 51.51794,
          "lng": -0.083162
        },
        {
          "id": "HUBSPB",
          "name": "Shepherd's Bush",
          "lat": 51.504791,
          "lng": -0.219213
        },
        {
          "id": "HUBSRA",
          "name": "Stratford",
          "lat": 51.541508,
          "lng": -0.00241
        },
        {
          "id": "HUBSRU",
          "name": "South Ruislip",
          "lat": 51.556893,
          "lng": -0.399076
        },
        {
          "id": "HUBTCR",
          "name": "Tottenham Court Road",
          "lat": 51.516018,
          "lng": -0.130888
        },
        {
          "id": "HUBWRU",
          "name": "West Ruislip",
          "lat": 51.569721,
          "lng": -0.437816
        }
      ]
    },
    {
      "id": "CIR",
      "shortName": "CIR",
      "longName": "Circle",
      "color": "#FFD300",
      "textColor": "#FFFFFF",
      "mode": 1,
      "operator": "London Underground",
      "stations": [
        {
          "id": "940GZZLUALD",
          "name": "Aldgate",
          "lat": 51.514246,
          "lng": -0.075689
        },
        {
          "id": "940GZZLUBBN",
          "name": "Barbican",
          "lat": 51.520275,
          "lng": -0.097993
        },
        {
          "id": "940GZZLUBST",
          "name": "Baker Street",
          "lat": 51.522883,
          "lng": -0.15713
        },
        {
          "id": "940GZZLUBWT",
          "name": "Bayswater",
          "lat": 51.512284,
          "lng": -0.187938
        },
        {
          "id": "940GZZLUEMB",
          "name": "Embankment",
          "lat": 51.507058,
          "lng": -0.122666
        },
        {
          "id": "940GZZLUERC",
          "name": "Edgware Road (Circle Line)",
          "lat": 51.519858,
          "lng": -0.167832
        },
        {
          "id": "940GZZLUESQ",
          "name": "Euston Square",
          "lat": 51.525604,
          "lng": -0.135829
        },
        {
          "id": "940GZZLUGHK",
          "name": "Goldhawk Road",
          "lat": 51.502005,
          "lng": -0.226715
        },
        {
          "id": "940GZZLUGPS",
          "name": "Great Portland Street",
          "lat": 51.52384,
          "lng": -0.144262
        },
        {
          "id": "940GZZLUGTR",
          "name": "Gloucester Road",
          "lat": 51.494316,
          "lng": -0.182658
        },
        {
          "id": "940GZZLUHSK",
          "name": "High Street Kensington",
          "lat": 51.501055,
          "lng": -0.192792
        },
        {
          "id": "940GZZLULAD",
          "name": "Ladbroke Grove",
          "lat": 51.517449,
          "lng": -0.210391
        },
        {
          "id": "940GZZLULRD",
          "name": "Latimer Road",
          "lat": 51.513389,
          "lng": -0.217799
        },
        {
          "id": "940GZZLUMMT",
          "name": "Monument",
          "lat": 51.5107,
          "lng": -0.085969
        },
        {
          "id": "940GZZLUMSH",
          "name": "Mansion House",
          "lat": 51.512117,
          "lng": -0.094009
        },
        {
          "id": "940GZZLUNHG",
          "name": "Notting Hill Gate",
          "lat": 51.509128,
          "lng": -0.196104
        },
        {
          "id": "940GZZLURYO",
          "name": "Royal Oak",
          "lat": 51.519113,
          "lng": -0.188748
        },
        {
          "id": "940GZZLUSBM",
          "name": "Shepherd's Bush Market",
          "lat": 51.505579,
          "lng": -0.226375
        },
        {
          "id": "940GZZLUSJP",
          "name": "St. James's Park",
          "lat": 51.499544,
          "lng": -0.133608
        },
        {
          "id": "940GZZLUSKS",
          "name": "South Kensington",
          "lat": 51.494094,
          "lng": -0.174138
        },
        {
          "id": "940GZZLUSSQ",
          "name": "Sloane Square",
          "lat": 51.49227,
          "lng": -0.156377
        },
        {
          "id": "940GZZLUTMP",
          "name": "Temple",
          "lat": 51.511006,
          "lng": -0.11426
        },
        {
          "id": "940GZZLUTWH",
          "name": "Tower Hill",
          "lat": 51.509971,
          "lng": -0.076546
        },
        {
          "id": "940GZZLUWLA",
          "name": "Wood Lane",
          "lat": 51.509669,
          "lng": -0.22453
        },
        {
          "id": "940GZZLUWSP",
          "name": "Westbourne Park",
          "lat": 51.52111,
          "lng": -0.201065
        },
        {
          "id": "HUBBFR",
          "name": "Blackfriars",
          "lat": 51.509613,
          "lng": -0.104166
        },
        {
          "id": "HUBCST",
          "name": "Cannon Street",
          "lat": 51.511451,
          "lng": -0.090357
        },
        {
          "id": "HUBHMS",
          "name": "Hammersmith",
          "lat": 51.492304,
          "lng": -0.223619
        },
        {
          "id": "HUBKGX",
          "name": "King's Cross & St Pancras International",
          "lat": 51.531683,
          "lng": -0.123538
        },
        {
          "id": "HUBLST",
          "name": "Liverpool Street",
          "lat": 51.51794,
          "lng": -0.083162
        },
        {
          "id": "HUBPAD",
          "name": "Paddington",
          "lat": 51.516981,
          "lng": -0.17616
        },
        {
          "id": "HUBVIC",
          "name": "Victoria",
          "lat": 51.495812,
          "lng": -0.143826
        },
        {
          "id": "HUBWSM",
          "name": "Westminster",
          "lat": 51.501603,
          "lng": -0.125984
        },
        {
          "id": "HUBZFD",
          "name": "Farringdon",
          "lat": 51.520214,
          "lng": -0.105054
        },
        {
          "id": "HUBZMG",
          "name": "Moorgate",
          "lat": 51.518338,
          "lng": -0.088627
        }
      ]
    },
    {
      "id": "DIS",
      "shortName": "DIS",
      "longName": "District",
      "color": "#00782A",
      "textColor": "#FFFFFF",
      "mode": 1,
      "operator": "London Underground",
      "stations": [
        {
          "id": "940GZZLUACT",
          "name": "Acton Town",
          "lat": 51.503057,
          "lng": -0.280462
        },
        {
          "id": "940GZZLUADE",
          "name": "Aldgate East",
          "lat": 51.515037,
          "lng": -0.072384
        },
        {
          "id": "940GZZLUBBB",
          "name": "Bromley-by-Bow",
          "lat": 51.524839,
          "lng": -0.011538
        },
        {
          "id": "940GZZLUBEC",
          "name": "Becontree",
          "lat": 51.540331,
          "lng": 0.127016
        },
        {
          "id": "940GZZLUBSC",
          "name": "Barons Court",
          "lat": 51.490311,
          "lng": -0.213427
        },
        {
          "id": "940GZZLUBWR",
          "name": "Bow Road",
          "lat": 51.52694,
          "lng": -0.025128
        },
        {
          "id": "940GZZLUBWT",
          "name": "Bayswater",
          "lat": 51.512284,
          "lng": -0.187938
        },
        {
          "id": "940GZZLUCWP",
          "name": "Chiswick Park",
          "lat": 51.494627,
          "lng": -0.267972
        },
        {
          "id": "940GZZLUDGE",
          "name": "Dagenham East",
          "lat": 51.544096,
          "lng": 0.166017
        },
        {
          "id": "940GZZLUDGY",
          "name": "Dagenham Heathway",
          "lat": 51.541639,
          "lng": 0.147527
        },
        {
          "id": "940GZZLUECM",
          "name": "Ealing Common",
          "lat": 51.51014,
          "lng": -0.288265
        },
        {
          "id": "940GZZLUECT",
          "name": "Earl's Court",
          "lat": 51.492063,
          "lng": -0.193378
        },
        {
          "id": "940GZZLUEHM",
          "name": "East Ham",
          "lat": 51.538948,
          "lng": 0.051186
        },
        {
          "id": "940GZZLUEMB",
          "name": "Embankment",
          "lat": 51.507058,
          "lng": -0.122666
        },
        {
          "id": "940GZZLUEPK",
          "name": "Elm Park",
          "lat": 51.549775,
          "lng": 0.19864
        },
        {
          "id": "940GZZLUEPY",
          "name": "East Putney",
          "lat": 51.459205,
          "lng": -0.211
        },
        {
          "id": "940GZZLUERC",
          "name": "Edgware Road (Circle Line)",
          "lat": 51.519858,
          "lng": -0.167832
        },
        {
          "id": "940GZZLUFBY",
          "name": "Fulham Broadway",
          "lat": 51.480081,
          "lng": -0.195422
        },
        {
          "id": "940GZZLUGTR",
          "name": "Gloucester Road",
          "lat": 51.494316,
          "lng": -0.182658
        },
        {
          "id": "940GZZLUHCH",
          "name": "Hornchurch",
          "lat": 51.554093,
          "lng": 0.219116
        },
        {
          "id": "940GZZLUHSK",
          "name": "High Street Kensington",
          "lat": 51.501055,
          "lng": -0.192792
        },
        {
          "id": "940GZZLUMED",
          "name": "Mile End",
          "lat": 51.525122,
          "lng": -0.03364
        },
        {
          "id": "940GZZLUMMT",
          "name": "Monument",
          "lat": 51.5107,
          "lng": -0.085969
        },
        {
          "id": "940GZZLUMSH",
          "name": "Mansion House",
          "lat": 51.512117,
          "lng": -0.094009
        },
        {
          "id": "940GZZLUNHG",
          "name": "Notting Hill Gate",
          "lat": 51.509128,
          "lng": -0.196104
        },
        {
          "id": "940GZZLUPLW",
          "name": "Plaistow",
          "lat": 51.531341,
          "lng": 0.017451
        },
        {
          "id": "940GZZLUPSG",
          "name": "Parsons Green",
          "lat": 51.475277,
          "lng": -0.20117
        },
        {
          "id": "940GZZLUPYB",
          "name": "Putney Bridge",
          "lat": 51.468262,
          "lng": -0.208731
        },
        {
          "id": "940GZZLURVP",
          "name": "Ravenscourt Park",
          "lat": 51.494122,
          "lng": -0.235881
        },
        {
          "id": "940GZZLUSFB",
          "name": "Stamford Brook",
          "lat": 51.494917,
          "lng": -0.245704
        },
        {
          "id": "940GZZLUSFS",
          "name": "Southfields",
          "lat": 51.445073,
          "lng": -0.206602
        },
        {
          "id": "940GZZLUSGN",
          "name": "Stepney Green",
          "lat": 51.521858,
          "lng": -0.046596
        },
        {
          "id": "940GZZLUSJP",
          "name": "St. James's Park",
          "lat": 51.499544,
          "lng": -0.133608
        },
        {
          "id": "940GZZLUSKS",
          "name": "South Kensington",
          "lat": 51.494094,
          "lng": -0.174138
        },
        {
          "id": "940GZZLUSSQ",
          "name": "Sloane Square",
          "lat": 51.49227,
          "lng": -0.156377
        },
        {
          "id": "940GZZLUTMP",
          "name": "Temple",
          "lat": 51.511006,
          "lng": -0.11426
        },
        {
          "id": "940GZZLUTNG",
          "name": "Turnham Green",
          "lat": 51.495148,
          "lng": -0.254555
        },
        {
          "id": "940GZZLUTWH",
          "name": "Tower Hill",
          "lat": 51.509971,
          "lng": -0.076546
        },
        {
          "id": "940GZZLUUPB",
          "name": "Upminster Bridge",
          "lat": 51.55856,
          "lng": 0.235809
        },
        {
          "id": "940GZZLUUPK",
          "name": "Upton Park",
          "lat": 51.53534,
          "lng": 0.035263
        },
        {
          "id": "940GZZLUUPY",
          "name": "Upney",
          "lat": 51.538372,
          "lng": 0.10153
        },
        {
          "id": "940GZZLUWIP",
          "name": "Wimbledon Park",
          "lat": 51.434573,
          "lng": -0.199719
        },
        {
          "id": "940GZZLUWKN",
          "name": "West Kensington",
          "lat": 51.490459,
          "lng": -0.206636
        },
        {
          "id": "HUBBFR",
          "name": "Blackfriars",
          "lat": 51.509613,
          "lng": -0.104166
        },
        {
          "id": "HUBBKG",
          "name": "Barking",
          "lat": 51.539413,
          "lng": 0.080988
        },
        {
          "id": "HUBCST",
          "name": "Cannon Street",
          "lat": 51.511451,
          "lng": -0.090357
        },
        {
          "id": "HUBEAL",
          "name": "Ealing Broadway",
          "lat": 51.514993,
          "lng": -0.302131
        },
        {
          "id": "HUBGUN",
          "name": "Gunnersbury",
          "lat": 51.491745,
          "lng": -0.275276
        },
        {
          "id": "HUBHMS",
          "name": "Hammersmith",
          "lat": 51.492304,
          "lng": -0.223619
        },
        {
          "id": "HUBKPA",
          "name": "Kensington (Olympia)",
          "lat": 51.496156,
          "lng": -0.210502
        },
        {
          "id": "HUBKWG",
          "name": "Kew Gardens",
          "lat": 51.477069,
          "lng": -0.285148
        },
        {
          "id": "HUBPAD",
          "name": "Paddington",
          "lat": 51.516981,
          "lng": -0.17616
        },
        {
          "id": "HUBRMD",
          "name": "Richmond",
          "lat": 51.463152,
          "lng": -0.301448
        },
        {
          "id": "HUBUPM",
          "name": "Upminster",
          "lat": 51.558659,
          "lng": 0.250855
        },
        {
          "id": "HUBVIC",
          "name": "Victoria",
          "lat": 51.495812,
          "lng": -0.143826
        },
        {
          "id": "HUBWBP",
          "name": "West Brompton",
          "lat": 51.487168,
          "lng": -0.195593
        },
        {
          "id": "HUBWEH",
          "name": "West Ham",
          "lat": 51.528178,
          "lng": 0.004997
        },
        {
          "id": "HUBWIM",
          "name": "Wimbledon",
          "lat": 51.421505,
          "lng": -0.206444
        },
        {
          "id": "HUBWSM",
          "name": "Westminster",
          "lat": 51.501603,
          "lng": -0.125984
        },
        {
          "id": "HUBZWL",
          "name": "Whitechapel",
          "lat": 51.519498,
          "lng": -0.059858
        }
      ]
    },
    {
      "id": "HAM",
      "shortName": "HAM",
      "longName": "Hammersmith & City",
      "color": "#F3A9BB",
      "textColor": "#FFFFFF",
      "mode": 1,
      "operator": "London Underground",
      "stations": [
        {
          "id": "940GZZLUADE",
          "name": "Aldgate East",
          "lat": 51.515037,
          "lng": -0.072384
        },
        {
          "id": "940GZZLUBBB",
          "name": "Bromley-by-Bow",
          "lat": 51.524839,
          "lng": -0.011538
        },
        {
          "id": "940GZZLUBBN",
          "name": "Barbican",
          "lat": 51.520275,
          "lng": -0.097993
        },
        {
          "id": "940GZZLUBST",
          "name": "Baker Street",
          "lat": 51.522883,
          "lng": -0.15713
        },
        {
          "id": "940GZZLUBWR",
          "name": "Bow Road",
          "lat": 51.52694,
          "lng": -0.025128
        },
        {
          "id": "940GZZLUEHM",
          "name": "East Ham",
          "lat": 51.538948,
          "lng": 0.051186
        },
        {
          "id": "940GZZLUERC",
          "name": "Edgware Road (Circle Line)",
          "lat": 51.519858,
          "lng": -0.167832
        },
        {
          "id": "940GZZLUESQ",
          "name": "Euston Square",
          "lat": 51.525604,
          "lng": -0.135829
        },
        {
          "id": "940GZZLUGHK",
          "name": "Goldhawk Road",
          "lat": 51.502005,
          "lng": -0.226715
        },
        {
          "id": "940GZZLUGPS",
          "name": "Great Portland Street",
          "lat": 51.52384,
          "lng": -0.144262
        },
        {
          "id": "940GZZLULAD",
          "name": "Ladbroke Grove",
          "lat": 51.517449,
          "lng": -0.210391
        },
        {
          "id": "940GZZLULRD",
          "name": "Latimer Road",
          "lat": 51.513389,
          "lng": -0.217799
        },
        {
          "id": "940GZZLUMED",
          "name": "Mile End",
          "lat": 51.525122,
          "lng": -0.03364
        },
        {
          "id": "940GZZLUPLW",
          "name": "Plaistow",
          "lat": 51.531341,
          "lng": 0.017451
        },
        {
          "id": "940GZZLURYO",
          "name": "Royal Oak",
          "lat": 51.519113,
          "lng": -0.188748
        },
        {
          "id": "940GZZLUSBM",
          "name": "Shepherd's Bush Market",
          "lat": 51.505579,
          "lng": -0.226375
        },
        {
          "id": "940GZZLUSGN",
          "name": "Stepney Green",
          "lat": 51.521858,
          "lng": -0.046596
        },
        {
          "id": "940GZZLUUPK",
          "name": "Upton Park",
          "lat": 51.53534,
          "lng": 0.035263
        },
        {
          "id": "940GZZLUWLA",
          "name": "Wood Lane",
          "lat": 51.509669,
          "lng": -0.22453
        },
        {
          "id": "940GZZLUWSP",
          "name": "Westbourne Park",
          "lat": 51.52111,
          "lng": -0.201065
        },
        {
          "id": "HUBBKG",
          "name": "Barking",
          "lat": 51.539413,
          "lng": 0.080988
        },
        {
          "id": "HUBHMS",
          "name": "Hammersmith",
          "lat": 51.492304,
          "lng": -0.223619
        },
        {
          "id": "HUBKGX",
          "name": "King's Cross & St Pancras International",
          "lat": 51.531683,
          "lng": -0.123538
        },
        {
          "id": "HUBLST",
          "name": "Liverpool Street",
          "lat": 51.51794,
          "lng": -0.083162
        },
        {
          "id": "HUBPAD",
          "name": "Paddington",
          "lat": 51.516981,
          "lng": -0.17616
        },
        {
          "id": "HUBWEH",
          "name": "West Ham",
          "lat": 51.528178,
          "lng": 0.004997
        },
        {
          "id": "HUBZFD",
          "name": "Farringdon",
          "lat": 51.520214,
          "lng": -0.105054
        },
        {
          "id": "HUBZMG",
          "name": "Moorgate",
          "lat": 51.518338,
          "lng": -0.088627
        },
        {
          "id": "HUBZWL",
          "name": "Whitechapel",
          "lat": 51.519498,
          "lng": -0.059858
        }
      ]
    },
    {
      "id": "JUB",
      "shortName": "JUB",
      "longName": "Jubilee",
      "color": "#A0A5A9",
      "textColor": "#FFFFFF",
      "mode": 1,
      "operator": "London Underground",
      "stations": [
        {
          "id": "940GZZLUBMY",
          "name": "Bermondsey",
          "lat": 51.49775,
          "lng": -0.063993
        },
        {
          "id": "940GZZLUBST",
          "name": "Baker Street",
          "lat": 51.522883,
          "lng": -0.15713
        },
        {
          "id": "940GZZLUCPK",
          "name": "Canons Park",
          "lat": 51.607701,
          "lng": -0.294693
        },
        {
          "id": "940GZZLUDOH",
          "name": "Dollis Hill",
          "lat": 51.551955,
          "lng": -0.239068
        },
        {
          "id": "940GZZLUFYR",
          "name": "Finchley Road",
          "lat": 51.546825,
          "lng": -0.179845
        },
        {
          "id": "940GZZLUGPK",
          "name": "Green Park",
          "lat": 51.506947,
          "lng": -0.142787
        },
        {
          "id": "940GZZLUKBN",
          "name": "Kilburn",
          "lat": 51.547183,
          "lng": -0.204248
        },
        {
          "id": "940GZZLUKBY",
          "name": "Kingsbury",
          "lat": 51.584845,
          "lng": -0.27879
        },
        {
          "id": "940GZZLUNDN",
          "name": "Neasden",
          "lat": 51.553986,
          "lng": -0.249837
        },
        {
          "id": "940GZZLUQBY",
          "name": "Queensbury",
          "lat": 51.594188,
          "lng": -0.286219
        },
        {
          "id": "940GZZLUSJW",
          "name": "St. John's Wood",
          "lat": 51.534521,
          "lng": -0.173948
        },
        {
          "id": "940GZZLUSTM",
          "name": "Stanmore",
          "lat": 51.619839,
          "lng": -0.303266
        },
        {
          "id": "940GZZLUSWC",
          "name": "Swiss Cottage",
          "lat": 51.543681,
          "lng": -0.174894
        },
        {
          "id": "940GZZLUSWK",
          "name": "Southwark",
          "lat": 51.50427,
          "lng": -0.105331
        },
        {
          "id": "940GZZLUWIG",
          "name": "Willesden Green",
          "lat": 51.549146,
          "lng": -0.221537
        },
        {
          "id": "940GZZLUWYP",
          "name": "Wembley Park",
          "lat": 51.563198,
          "lng": -0.279262
        },
        {
          "id": "HUBBDS",
          "name": "Bond Street",
          "lat": 51.513362,
          "lng": -0.148795
        },
        {
          "id": "HUBCAN",
          "name": "Canning Town",
          "lat": 51.514029,
          "lng": 0.008025
        },
        {
          "id": "HUBCAW",
          "name": "Canary Wharf",
          "lat": 51.503734,
          "lng": -0.019121
        },
        {
          "id": "HUBLBG",
          "name": "London Bridge",
          "lat": 51.505881,
          "lng": -0.086807
        },
        {
          "id": "HUBNGW",
          "name": "North Greenwich",
          "lat": 51.500474,
          "lng": 0.004295
        },
        {
          "id": "HUBSRA",
          "name": "Stratford",
          "lat": 51.541508,
          "lng": -0.00241
        },
        {
          "id": "HUBWAT",
          "name": "Waterloo",
          "lat": 51.504269,
          "lng": -0.113356
        },
        {
          "id": "HUBWEH",
          "name": "West Ham",
          "lat": 51.528178,
          "lng": 0.004997
        },
        {
          "id": "HUBWHD",
          "name": "West Hampstead",
          "lat": 51.547533,
          "lng": -0.191357
        },
        {
          "id": "HUBWSM",
          "name": "Westminster",
          "lat": 51.501603,
          "lng": -0.125984
        },
        {
          "id": "HUBZCW",
          "name": "Canada Water",
          "lat": 51.498053,
          "lng": -0.049667
        }
      ]
    },
    {
      "id": "MET",
      "shortName": "MET",
      "longName": "Metropolitan",
      "color": "#9B0056",
      "textColor": "#FFFFFF",
      "mode": 1,
      "operator": "London Underground",
      "stations": [
        {
          "id": "940GZZLUALD",
          "name": "Aldgate",
          "lat": 51.514246,
          "lng": -0.075689
        },
        {
          "id": "940GZZLUBBN",
          "name": "Barbican",
          "lat": 51.520275,
          "lng": -0.097993
        },
        {
          "id": "940GZZLUBST",
          "name": "Baker Street",
          "lat": 51.522883,
          "lng": -0.15713
        },
        {
          "id": "940GZZLUCSM",
          "name": "Chesham",
          "lat": 51.705208,
          "lng": -0.611247
        },
        {
          "id": "940GZZLUCXY",
          "name": "Croxley",
          "lat": 51.647044,
          "lng": -0.441718
        },
        {
          "id": "940GZZLUEAE",
          "name": "Eastcote",
          "lat": 51.576506,
          "lng": -0.397373
        },
        {
          "id": "940GZZLUESQ",
          "name": "Euston Square",
          "lat": 51.525604,
          "lng": -0.135829
        },
        {
          "id": "940GZZLUFYR",
          "name": "Finchley Road",
          "lat": 51.546825,
          "lng": -0.179845
        },
        {
          "id": "940GZZLUGPS",
          "name": "Great Portland Street",
          "lat": 51.52384,
          "lng": -0.144262
        },
        {
          "id": "940GZZLUHGD",
          "name": "Hillingdon",
          "lat": 51.553715,
          "lng": -0.449828
        },
        {
          "id": "940GZZLUICK",
          "name": "Ickenham",
          "lat": 51.561992,
          "lng": -0.442001
        },
        {
          "id": "940GZZLUMPK",
          "name": "Moor Park",
          "lat": 51.629845,
          "lng": -0.432454
        },
        {
          "id": "940GZZLUNHA",
          "name": "North Harrow",
          "lat": 51.584872,
          "lng": -0.362408
        },
        {
          "id": "940GZZLUNKP",
          "name": "Northwick Park",
          "lat": 51.578481,
          "lng": -0.318056
        },
        {
          "id": "940GZZLUNOW",
          "name": "Northwood",
          "lat": 51.611053,
          "lng": -0.423829
        },
        {
          "id": "940GZZLUNWH",
          "name": "Northwood Hills",
          "lat": 51.600572,
          "lng": -0.409464
        },
        {
          "id": "940GZZLUPNR",
          "name": "Pinner",
          "lat": 51.592901,
          "lng": -0.381161
        },
        {
          "id": "940GZZLUPRD",
          "name": "Preston Road",
          "lat": 51.571972,
          "lng": -0.295107
        },
        {
          "id": "940GZZLURSM",
          "name": "Ruislip Manor",
          "lat": 51.573202,
          "lng": -0.412973
        },
        {
          "id": "940GZZLURSP",
          "name": "Ruislip",
          "lat": 51.571354,
          "lng": -0.421898
        },
        {
          "id": "940GZZLURYL",
          "name": "Rayners Lane",
          "lat": 51.575147,
          "lng": -0.371127
        },
        {
          "id": "940GZZLUUXB",
          "name": "Uxbridge",
          "lat": 51.546565,
          "lng": -0.477949
        },
        {
          "id": "940GZZLUWAF",
          "name": "Watford",
          "lat": 51.657446,
          "lng": -0.417377
        },
        {
          "id": "940GZZLUWHW",
          "name": "West Harrow",
          "lat": 51.57971,
          "lng": -0.3534
        },
        {
          "id": "940GZZLUWYP",
          "name": "Wembley Park",
          "lat": 51.563198,
          "lng": -0.279262
        },
        {
          "id": "HUBAMR",
          "name": "Amersham",
          "lat": 51.674207,
          "lng": -0.60759
        },
        {
          "id": "HUBCFO",
          "name": "Chalfont & Latimer",
          "lat": 51.668109,
          "lng": -0.560519
        },
        {
          "id": "HUBCLW",
          "name": "Chorleywood",
          "lat": 51.654249,
          "lng": -0.518312
        },
        {
          "id": "HUBHOH",
          "name": "Harrow-on-the-Hill",
          "lat": 51.579197,
          "lng": -0.337226
        },
        {
          "id": "HUBKGX",
          "name": "King's Cross & St Pancras International",
          "lat": 51.531683,
          "lng": -0.123538
        },
        {
          "id": "HUBLST",
          "name": "Liverpool Street",
          "lat": 51.51794,
          "lng": -0.083162
        },
        {
          "id": "HUBRIC",
          "name": "Rickmansworth",
          "lat": 51.640247,
          "lng": -0.473273
        },
        {
          "id": "HUBZFD",
          "name": "Farringdon",
          "lat": 51.520214,
          "lng": -0.105054
        },
        {
          "id": "HUBZMG",
          "name": "Moorgate",
          "lat": 51.518338,
          "lng": -0.088627
        }
      ]
    },
    {
      "id": "NOR",
      "shortName": "NOR",
      "longName": "Northern",
      "color": "#000000",
      "textColor": "#FFFFFF",
      "mode": 1,
      "operator": "London Underground",
      "stations": [
        {
          "id": "940GZZBPSUST",
          "name": "Battersea Power Station",
          "lat": 51.479932,
          "lng": -0.142142
        },
        {
          "id": "940GZZLUACY",
          "name": "Archway",
          "lat": 51.565478,
          "lng": -0.134819
        },
        {
          "id": "940GZZLUAGL",
          "name": "Angel",
          "lat": 51.532624,
          "lng": -0.105898
        },
        {
          "id": "940GZZLUBOR",
          "name": "Borough",
          "lat": 51.501199,
          "lng": -0.09337
        },
        {
          "id": "940GZZLUBTK",
          "name": "Burnt Oak",
          "lat": 51.602774,
          "lng": -0.264048
        },
        {
          "id": "940GZZLUBTX",
          "name": "Brent Cross",
          "lat": 51.57665,
          "lng": -0.213622
        },
        {
          "id": "940GZZLUBZP",
          "name": "Belsize Park",
          "lat": 51.550529,
          "lng": -0.164783
        },
        {
          "id": "940GZZLUCFM",
          "name": "Chalk Farm",
          "lat": 51.544118,
          "lng": -0.153388
        },
        {
          "id": "940GZZLUCND",
          "name": "Colindale",
          "lat": 51.595424,
          "lng": -0.249919
        },
        {
          "id": "940GZZLUCPC",
          "name": "Clapham Common",
          "lat": 51.461742,
          "lng": -0.138317
        },
        {
          "id": "940GZZLUCPN",
          "name": "Clapham North",
          "lat": 51.465135,
          "lng": -0.130016
        },
        {
          "id": "940GZZLUCPS",
          "name": "Clapham South",
          "lat": 51.452654,
          "lng": -0.147582
        },
        {
          "id": "940GZZLUCSD",
          "name": "Colliers Wood",
          "lat": 51.41816,
          "lng": -0.178086
        },
        {
          "id": "940GZZLUCTN",
          "name": "Camden Town",
          "lat": 51.539292,
          "lng": -0.14274
        },
        {
          "id": "940GZZLUEFY",
          "name": "East Finchley",
          "lat": 51.587131,
          "lng": -0.165012
        },
        {
          "id": "940GZZLUEGW",
          "name": "Edgware",
          "lat": 51.613653,
          "lng": -0.274928
        },
        {
          "id": "940GZZLUEMB",
          "name": "Embankment",
          "lat": 51.507058,
          "lng": -0.122666
        },
        {
          "id": "940GZZLUFYC",
          "name": "Finchley Central",
          "lat": 51.600921,
          "lng": -0.192527
        },
        {
          "id": "940GZZLUGDG",
          "name": "Goodge Street",
          "lat": 51.520599,
          "lng": -0.134361
        },
        {
          "id": "940GZZLUGGN",
          "name": "Golders Green",
          "lat": 51.572259,
          "lng": -0.194039
        },
        {
          "id": "940GZZLUHBT",
          "name": "High Barnet",
          "lat": 51.650541,
          "lng": -0.194298
        },
        {
          "id": "940GZZLUHCL",
          "name": "Hendon Central",
          "lat": 51.583301,
          "lng": -0.226424
        },
        {
          "id": "940GZZLUHGT",
          "name": "Highgate",
          "lat": 51.577532,
          "lng": -0.145857
        },
        {
          "id": "940GZZLUHTD",
          "name": "Hampstead",
          "lat": 51.556239,
          "lng": -0.177464
        },
        {
          "id": "940GZZLUKNG",
          "name": "Kennington",
          "lat": 51.488337,
          "lng": -0.105963
        },
        {
          "id": "940GZZLULSQ",
          "name": "Leicester Square",
          "lat": 51.511386,
          "lng": -0.128426
        },
        {
          "id": "940GZZLUMDN",
          "name": "Morden",
          "lat": 51.402142,
          "lng": -0.194839
        },
        {
          "id": "940GZZLUMHL",
          "name": "Mill Hill East",
          "lat": 51.608229,
          "lng": -0.209986
        },
        {
          "id": "940GZZLUMTC",
          "name": "Mornington Crescent",
          "lat": 51.534679,
          "lng": -0.138789
        },
        {
          "id": "940GZZLUOVL",
          "name": "Oval",
          "lat": 51.48185,
          "lng": -0.112439
        },
        {
          "id": "940GZZLUSKW",
          "name": "Stockwell",
          "lat": 51.472184,
          "lng": -0.122644
        },
        {
          "id": "940GZZLUSWN",
          "name": "South Wimbledon",
          "lat": 51.415309,
          "lng": -0.192005
        },
        {
          "id": "940GZZLUTAW",
          "name": "Totteridge & Whetstone",
          "lat": 51.630597,
          "lng": -0.17921
        },
        {
          "id": "940GZZLUTBC",
          "name": "Tooting Bec",
          "lat": 51.435678,
          "lng": -0.159736
        },
        {
          "id": "940GZZLUTBY",
          "name": "Tooting Broadway",
          "lat": 51.42763,
          "lng": -0.168374
        },
        {
          "id": "940GZZLUTFP",
          "name": "Tufnell Park",
          "lat": 51.556822,
          "lng": -0.138433
        },
        {
          "id": "940GZZLUWFN",
          "name": "West Finchley",
          "lat": 51.609426,
          "lng": -0.188362
        },
        {
          "id": "940GZZLUWOP",
          "name": "Woodside Park",
          "lat": 51.618014,
          "lng": -0.18542
        },
        {
          "id": "940GZZLUWRR",
          "name": "Warren Street",
          "lat": 51.524951,
          "lng": -0.138321
        },
        {
          "id": "940GZZNEUGST",
          "name": "Nine Elms",
          "lat": 51.479912,
          "lng": -0.128476
        },
        {
          "id": "HUBBAL",
          "name": "Balham",
          "lat": 51.443259,
          "lng": -0.152707
        },
        {
          "id": "HUBBAN",
          "name": "Bank",
          "lat": 51.513395,
          "lng": -0.089095
        },
        {
          "id": "HUBCHX",
          "name": "Charing Cross",
          "lat": 51.507819,
          "lng": -0.126137
        },
        {
          "id": "HUBEPH",
          "name": "Elephant & Castle",
          "lat": 51.494505,
          "lng": -0.099185
        },
        {
          "id": "HUBEUS",
          "name": "Euston",
          "lat": 51.527365,
          "lng": -0.132754
        },
        {
          "id": "HUBKGX",
          "name": "King's Cross & St Pancras International",
          "lat": 51.531683,
          "lng": -0.123538
        },
        {
          "id": "HUBKTN",
          "name": "Kentish Town",
          "lat": 51.550409,
          "lng": -0.140545
        },
        {
          "id": "HUBLBG",
          "name": "London Bridge",
          "lat": 51.505881,
          "lng": -0.086807
        },
        {
          "id": "HUBOLD",
          "name": "Old Street",
          "lat": 51.526065,
          "lng": -0.088193
        },
        {
          "id": "HUBTCR",
          "name": "Tottenham Court Road",
          "lat": 51.516018,
          "lng": -0.130888
        },
        {
          "id": "HUBWAT",
          "name": "Waterloo",
          "lat": 51.504269,
          "lng": -0.113356
        },
        {
          "id": "HUBZMG",
          "name": "Moorgate",
          "lat": 51.518338,
          "lng": -0.088627
        }
      ]
    },
    {
      "id": "PIC",
      "shortName": "PIC",
      "longName": "Piccadilly",
      "color": "#003688",
      "textColor": "#FFFFFF",
      "mode": 1,
      "operator": "London Underground",
      "stations": [
        {
          "id": "940GZZLUACT",
          "name": "Acton Town",
          "lat": 51.503057,
          "lng": -0.280462
        },
        {
          "id": "940GZZLUALP",
          "name": "Alperton",
          "lat": 51.540627,
          "lng": -0.29961
        },
        {
          "id": "940GZZLUASG",
          "name": "Arnos Grove",
          "lat": 51.616446,
          "lng": -0.133062
        },
        {
          "id": "940GZZLUASL",
          "name": "Arsenal",
          "lat": 51.558655,
          "lng": -0.107457
        },
        {
          "id": "940GZZLUBDS",
          "name": "Bounds Green",
          "lat": 51.607034,
          "lng": -0.124235
        },
        {
          "id": "940GZZLUBOS",
          "name": "Boston Manor",
          "lat": 51.495635,
          "lng": -0.324939
        },
        {
          "id": "940GZZLUBSC",
          "name": "Barons Court",
          "lat": 51.490311,
          "lng": -0.213427
        },
        {
          "id": "940GZZLUCAR",
          "name": "Caledonian Road",
          "lat": 51.548519,
          "lng": -0.118493
        },
        {
          "id": "940GZZLUCGN",
          "name": "Covent Garden",
          "lat": 51.513093,
          "lng": -0.124436
        },
        {
          "id": "940GZZLUCKS",
          "name": "Cockfosters",
          "lat": 51.65152,
          "lng": -0.149171
        },
        {
          "id": "940GZZLUEAE",
          "name": "Eastcote",
          "lat": 51.576506,
          "lng": -0.397373
        },
        {
          "id": "940GZZLUECM",
          "name": "Ealing Common",
          "lat": 51.51014,
          "lng": -0.288265
        },
        {
          "id": "940GZZLUECT",
          "name": "Earl's Court",
          "lat": 51.492063,
          "lng": -0.193378
        },
        {
          "id": "940GZZLUGPK",
          "name": "Green Park",
          "lat": 51.506947,
          "lng": -0.142787
        },
        {
          "id": "940GZZLUGTR",
          "name": "Gloucester Road",
          "lat": 51.494316,
          "lng": -0.182658
        },
        {
          "id": "940GZZLUHBN",
          "name": "Holborn",
          "lat": 51.51758,
          "lng": -0.120475
        },
        {
          "id": "940GZZLUHGD",
          "name": "Hillingdon",
          "lat": 51.553715,
          "lng": -0.449828
        },
        {
          "id": "940GZZLUHNX",
          "name": "Hatton Cross",
          "lat": 51.466747,
          "lng": -0.423191
        },
        {
          "id": "940GZZLUHPC",
          "name": "Hyde Park Corner",
          "lat": 51.503035,
          "lng": -0.152441
        },
        {
          "id": "940GZZLUHWC",
          "name": "Hounslow Central",
          "lat": 51.471295,
          "lng": -0.366578
        },
        {
          "id": "940GZZLUHWE",
          "name": "Hounslow East",
          "lat": 51.473213,
          "lng": -0.356474
        },
        {
          "id": "940GZZLUHWT",
          "name": "Hounslow West",
          "lat": 51.473469,
          "lng": -0.386544
        },
        {
          "id": "940GZZLUHWY",
          "name": "Holloway Road",
          "lat": 51.552697,
          "lng": -0.113244
        },
        {
          "id": "940GZZLUICK",
          "name": "Ickenham",
          "lat": 51.561992,
          "lng": -0.442001
        },
        {
          "id": "940GZZLUKNB",
          "name": "Knightsbridge",
          "lat": 51.501669,
          "lng": -0.160508
        },
        {
          "id": "940GZZLULSQ",
          "name": "Leicester Square",
          "lat": 51.511386,
          "lng": -0.128426
        },
        {
          "id": "940GZZLUMRH",
          "name": "Manor House",
          "lat": 51.570738,
          "lng": -0.096118
        },
        {
          "id": "940GZZLUNEN",
          "name": "North Ealing",
          "lat": 51.517505,
          "lng": -0.288868
        },
        {
          "id": "940GZZLUNFD",
          "name": "Northfields",
          "lat": 51.499319,
          "lng": -0.314719
        },
        {
          "id": "940GZZLUOAK",
          "name": "Oakwood",
          "lat": 51.647726,
          "lng": -0.132182
        },
        {
          "id": "940GZZLUOSY",
          "name": "Osterley",
          "lat": 51.481274,
          "lng": -0.352224
        },
        {
          "id": "940GZZLUPCC",
          "name": "Piccadilly Circus",
          "lat": 51.51005,
          "lng": -0.133798
        },
        {
          "id": "940GZZLUPKR",
          "name": "Park Royal",
          "lat": 51.527123,
          "lng": -0.284341
        },
        {
          "id": "940GZZLURSM",
          "name": "Ruislip Manor",
          "lat": 51.573202,
          "lng": -0.412973
        },
        {
          "id": "940GZZLURSP",
          "name": "Ruislip",
          "lat": 51.571354,
          "lng": -0.421898
        },
        {
          "id": "940GZZLURSQ",
          "name": "Russell Square",
          "lat": 51.523073,
          "lng": -0.124285
        },
        {
          "id": "940GZZLURYL",
          "name": "Rayners Lane",
          "lat": 51.575147,
          "lng": -0.371127
        },
        {
          "id": "940GZZLUSEA",
          "name": "South Ealing",
          "lat": 51.501003,
          "lng": -0.307424
        },
        {
          "id": "940GZZLUSGT",
          "name": "Southgate",
          "lat": 51.632315,
          "lng": -0.127816
        },
        {
          "id": "940GZZLUSHH",
          "name": "South Harrow",
          "lat": 51.564888,
          "lng": -0.352492
        },
        {
          "id": "940GZZLUSKS",
          "name": "South Kensington",
          "lat": 51.494094,
          "lng": -0.174138
        },
        {
          "id": "940GZZLUSUH",
          "name": "Sudbury Hill",
          "lat": 51.556946,
          "lng": -0.336435
        },
        {
          "id": "940GZZLUSUT",
          "name": "Sudbury Town",
          "lat": 51.550815,
          "lng": -0.315745
        },
        {
          "id": "940GZZLUTNG",
          "name": "Turnham Green",
          "lat": 51.495148,
          "lng": -0.254555
        },
        {
          "id": "940GZZLUTPN",
          "name": "Turnpike Lane",
          "lat": 51.590272,
          "lng": -0.102953
        },
        {
          "id": "940GZZLUUXB",
          "name": "Uxbridge",
          "lat": 51.546565,
          "lng": -0.477949
        },
        {
          "id": "940GZZLUWOG",
          "name": "Wood Green",
          "lat": 51.597479,
          "lng": -0.109886
        },
        {
          "id": "HUBFPK",
          "name": "Finsbury Park",
          "lat": 51.564778,
          "lng": -0.105876
        },
        {
          "id": "HUBH13",
          "name": "Heathrow Terminals 2 & 3",
          "lat": 51.471618,
          "lng": -0.454037
        },
        {
          "id": "HUBHMS",
          "name": "Hammersmith",
          "lat": 51.492304,
          "lng": -0.223619
        },
        {
          "id": "HUBHX4",
          "name": "Heathrow Airport Terminal 4",
          "lat": 51.458837,
          "lng": -0.446419
        },
        {
          "id": "HUBHX5",
          "name": "Heathrow Airport Terminal 5",
          "lat": 51.471569,
          "lng": -0.489556
        },
        {
          "id": "HUBKGX",
          "name": "King's Cross & St Pancras International",
          "lat": 51.531683,
          "lng": -0.123538
        }
      ]
    },
    {
      "id": "VIC",
      "shortName": "VIC",
      "longName": "Victoria",
      "color": "#0098D4",
      "textColor": "#FFFFFF",
      "mode": 1,
      "operator": "London Underground",
      "stations": [
        {
          "id": "940GZZLUGPK",
          "name": "Green Park",
          "lat": 51.506947,
          "lng": -0.142787
        },
        {
          "id": "940GZZLUOXC",
          "name": "Oxford Circus",
          "lat": 51.515224,
          "lng": -0.141903
        },
        {
          "id": "940GZZLUPCO",
          "name": "Pimlico",
          "lat": 51.489097,
          "lng": -0.133761
        },
        {
          "id": "940GZZLUSKW",
          "name": "Stockwell",
          "lat": 51.472184,
          "lng": -0.122644
        },
        {
          "id": "940GZZLUWRR",
          "name": "Warren Street",
          "lat": 51.524951,
          "lng": -0.138321
        },
        {
          "id": "HUBBHO",
          "name": "Blackhorse Road",
          "lat": 51.586768,
          "lng": -0.041185
        },
        {
          "id": "HUBBRX",
          "name": "Brixton",
          "lat": 51.462961,
          "lng": -0.114531
        },
        {
          "id": "HUBEUS",
          "name": "Euston",
          "lat": 51.527365,
          "lng": -0.132754
        },
        {
          "id": "HUBFPK",
          "name": "Finsbury Park",
          "lat": 51.564778,
          "lng": -0.105876
        },
        {
          "id": "HUBHHY",
          "name": "Highbury & Islington",
          "lat": 51.546269,
          "lng": -0.103538
        },
        {
          "id": "HUBKGX",
          "name": "King's Cross & St Pancras International",
          "lat": 51.531683,
          "lng": -0.123538
        },
        {
          "id": "HUBSVS",
          "name": "Seven Sisters",
          "lat": 51.582931,
          "lng": -0.073306
        },
        {
          "id": "HUBTOM",
          "name": "Tottenham Hale",
          "lat": 51.588315,
          "lng": -0.06024
        },
        {
          "id": "HUBVIC",
          "name": "Victoria",
          "lat": 51.495812,
          "lng": -0.143826
        },
        {
          "id": "HUBVXH",
          "name": "Vauxhall",
          "lat": 51.485739,
          "lng": -0.123303
        },
        {
          "id": "HUBWHC",
          "name": "Walthamstow Central",
          "lat": 51.582948,
          "lng": -0.019842
        }
      ]
    },
    {
      "id": "WAT",
      "shortName": "WAT",
      "longName": "Waterloo & City",
      "color": "#95CDBA",
      "textColor": "#FFFFFF",
      "mode": 1,
      "operator": "London Underground",
      "stations": [
        {
          "id": "HUBBAN",
          "name": "Bank",
          "lat": 51.513395,
          "lng": -0.089095
        },
        {
          "id": "HUBWAT",
          "name": "Waterloo",
          "lat": 51.504269,
          "lng": -0.113356
        }
      ]
    },
    {
      "id": "ELI",
      "shortName": "ELI",
      "longName": "Elizabeth line",
      "color": "#6950A1",
      "textColor": "#FFFFFF",
      "mode": 1,
      "operator": "Elizabeth Line",
      "stations": [
        {
          "id": "910GACTONML",
          "name": "Acton Main Line",
          "lat": 51.51718,
          "lng": -0.266756
        },
        {
          "id": "910GBNHAM",
          "name": "Burnham (Berks)",
          "lat": 51.523506,
          "lng": -0.646374
        },
        {
          "id": "910GBRTWOOD",
          "name": "Brentwood",
          "lat": 51.613605,
          "lng": 0.299586
        },
        {
          "id": "910GCHDWLHT",
          "name": "Chadwell Heath",
          "lat": 51.568039,
          "lng": 0.128958
        },
        {
          "id": "910GFRSTGT",
          "name": "Forest Gate",
          "lat": 51.549432,
          "lng": 0.024353
        },
        {
          "id": "910GGIDEAPK",
          "name": "Gidea Park",
          "lat": 51.581904,
          "lng": 0.205964
        },
        {
          "id": "910GGODMAYS",
          "name": "Goodmayes",
          "lat": 51.565579,
          "lng": 0.110807
        },
        {
          "id": "910GHANWELL",
          "name": "Hanwell",
          "lat": 51.511835,
          "lng": -0.338583
        },
        {
          "id": "910GHAYESAH",
          "name": "Hayes & Harlington",
          "lat": 51.503096,
          "lng": -0.420683
        },
        {
          "id": "910GHRLDWOD",
          "name": "Harold Wood",
          "lat": 51.592766,
          "lng": 0.233129
        },
        {
          "id": "910GILFORD",
          "name": "Ilford",
          "lat": 51.559118,
          "lng": 0.06968
        },
        {
          "id": "910GIVER",
          "name": "Iver",
          "lat": 51.508503,
          "lng": -0.506726
        },
        {
          "id": "910GLANGLEY",
          "name": "Langley (Berks)",
          "lat": 51.508062,
          "lng": -0.541756
        },
        {
          "id": "910GMANRPK",
          "name": "Manor Park",
          "lat": 51.552477,
          "lng": 0.046342
        },
        {
          "id": "910GMDNHEAD",
          "name": "Maidenhead",
          "lat": 51.518669,
          "lng": -0.72266
        },
        {
          "id": "910GMRYLAND",
          "name": "Maryland",
          "lat": 51.546081,
          "lng": 0.005815
        },
        {
          "id": "910GRDNGSTN",
          "name": "Reading",
          "lat": 51.458786,
          "lng": -0.971863
        },
        {
          "id": "910GROMFORD",
          "name": "Romford",
          "lat": 51.574829,
          "lng": 0.183237
        },
        {
          "id": "910GSHENFLD",
          "name": "Shenfield",
          "lat": 51.630877,
          "lng": 0.329851
        },
        {
          "id": "910GSLOUGH",
          "name": "Slough",
          "lat": 51.51188,
          "lng": -0.59151
        },
        {
          "id": "910GSTHALL",
          "name": "Southall",
          "lat": 51.505957,
          "lng": -0.37861
        },
        {
          "id": "910GSVNKNGS",
          "name": "Seven Kings",
          "lat": 51.564026,
          "lng": 0.0971
        },
        {
          "id": "910GTAPLOW",
          "name": "Taplow",
          "lat": 51.523562,
          "lng": -0.68137
        },
        {
          "id": "910GTWYFORD",
          "name": "Twyford",
          "lat": 51.475534,
          "lng": -0.863293
        },
        {
          "id": "910GWDRYTON",
          "name": "West Drayton",
          "lat": 51.510055,
          "lng": -0.472234
        },
        {
          "id": "910GWEALING",
          "name": "West Ealing",
          "lat": 51.513506,
          "lng": -0.320133
        },
        {
          "id": "910GWOLWXR",
          "name": "Woolwich",
          "lat": 51.4914,
          "lng": 0.07138
        },
        {
          "id": "HUBABW",
          "name": "Abbey Wood",
          "lat": 51.491247,
          "lng": 0.121057
        },
        {
          "id": "HUBBDS",
          "name": "Bond Street",
          "lat": 51.513362,
          "lng": -0.148795
        },
        {
          "id": "HUBCAW",
          "name": "Canary Wharf",
          "lat": 51.503734,
          "lng": -0.019121
        },
        {
          "id": "HUBCUS",
          "name": "Custom House",
          "lat": 51.518757,
          "lng": 0.027418
        },
        {
          "id": "HUBEAL",
          "name": "Ealing Broadway",
          "lat": 51.514993,
          "lng": -0.302131
        },
        {
          "id": "HUBH13",
          "name": "Heathrow Terminals 2 & 3",
          "lat": 51.471618,
          "lng": -0.454037
        },
        {
          "id": "HUBHX4",
          "name": "Heathrow Airport Terminal 4",
          "lat": 51.458837,
          "lng": -0.446419
        },
        {
          "id": "HUBHX5",
          "name": "Heathrow Airport Terminal 5",
          "lat": 51.471569,
          "lng": -0.489556
        },
        {
          "id": "HUBLST",
          "name": "Liverpool Street",
          "lat": 51.51794,
          "lng": -0.083162
        },
        {
          "id": "HUBPAD",
          "name": "Paddington",
          "lat": 51.516981,
          "lng": -0.17616
        },
        {
          "id": "HUBSRA",
          "name": "Stratford",
          "lat": 51.541508,
          "lng": -0.00241
        },
        {
          "id": "HUBTCR",
          "name": "Tottenham Court Road",
          "lat": 51.516018,
          "lng": -0.130888
        },
        {
          "id": "HUBZFD",
          "name": "Farringdon",
          "lat": 51.520214,
          "lng": -0.105054
        },
        {
          "id": "HUBZWL",
          "name": "Whitechapel",
          "lat": 51.519498,
          "lng": -0.059858
        }
      ]
    },
    {
      "id": "DLR",
      "shortName": "DLR",
      "longName": "DLR",
      "color": "#00A4A7",
      "textColor": "#FFFFFF",
      "mode": 1,
      "operator": "Docklands Light Railway",
      "stations": [
        {
          "id": "940GZZDLABR",
          "name": "Abbey Road",
          "lat": 51.531926,
          "lng": 0.003737
        },
        {
          "id": "940GZZDLALL",
          "name": "All Saints",
          "lat": 51.511,
          "lng": -0.013135
        },
        {
          "id": "940GZZDLBEC",
          "name": "Beckton",
          "lat": 51.514362,
          "lng": 0.061453
        },
        {
          "id": "940GZZDLBLA",
          "name": "Blackwall",
          "lat": 51.507991,
          "lng": -0.006969
        },
        {
          "id": "940GZZDLBOW",
          "name": "Bow Church",
          "lat": 51.527858,
          "lng": -0.020936
        },
        {
          "id": "940GZZDLBPK",
          "name": "Beckton Park",
          "lat": 51.508793,
          "lng": 0.054932
        },
        {
          "id": "940GZZDLCLA",
          "name": "Crossharbour",
          "lat": 51.495728,
          "lng": -0.014606
        },
        {
          "id": "940GZZDLCYP",
          "name": "Cyprus",
          "lat": 51.508473,
          "lng": 0.063925
        },
        {
          "id": "940GZZDLDEP",
          "name": "Deptford Bridge",
          "lat": 51.474215,
          "lng": -0.022438
        },
        {
          "id": "940GZZDLDEV",
          "name": "Devons Road",
          "lat": 51.522667,
          "lng": -0.017615
        },
        {
          "id": "940GZZDLEIN",
          "name": "East India",
          "lat": 51.509359,
          "lng": -0.002326
        },
        {
          "id": "940GZZDLELV",
          "name": "Elverson Road",
          "lat": 51.469074,
          "lng": -0.016728
        },
        {
          "id": "940GZZDLGAL",
          "name": "Gallions Reach",
          "lat": 51.508941,
          "lng": 0.071555
        },
        {
          "id": "940GZZDLHEQ",
          "name": "Heron Quays",
          "lat": 51.503379,
          "lng": -0.021421
        },
        {
          "id": "940GZZDLISL",
          "name": "Island Gardens",
          "lat": 51.487811,
          "lng": -0.010139
        },
        {
          "id": "940GZZDLKGV",
          "name": "King George V",
          "lat": 51.502003,
          "lng": 0.062624
        },
        {
          "id": "940GZZDLLDP",
          "name": "Langdon Park",
          "lat": 51.515172,
          "lng": -0.01415
        },
        {
          "id": "940GZZDLMUD",
          "name": "Mudchute",
          "lat": 51.490704,
          "lng": -0.014738
        },
        {
          "id": "940GZZDLPDK",
          "name": "Pontoon Dock",
          "lat": 51.502212,
          "lng": 0.032115
        },
        {
          "id": "940GZZDLPOP",
          "name": "Poplar",
          "lat": 51.507744,
          "lng": -0.017384
        },
        {
          "id": "940GZZDLPRE",
          "name": "Prince Regent",
          "lat": 51.509263,
          "lng": 0.034158
        },
        {
          "id": "940GZZDLPUD",
          "name": "Pudding Mill Lane",
          "lat": 51.534302,
          "lng": -0.012755
        },
        {
          "id": "940GZZDLRAL",
          "name": "Royal Albert",
          "lat": 51.508357,
          "lng": 0.045935
        },
        {
          "id": "940GZZDLSHS",
          "name": "Stratford High Street",
          "lat": 51.538196,
          "lng": -0.001078
        },
        {
          "id": "940GZZDLSIT",
          "name": "Stratford International",
          "lat": 51.545265,
          "lng": -0.009638
        },
        {
          "id": "940GZZDLSOQ",
          "name": "South Quay",
          "lat": 51.50005,
          "lng": -0.015975
        },
        {
          "id": "940GZZDLSTL",
          "name": "Star Lane",
          "lat": 51.520786,
          "lng": 0.004156
        },
        {
          "id": "940GZZDLWFE",
          "name": "Westferry",
          "lat": 51.509431,
          "lng": -0.02675
        },
        {
          "id": "940GZZDLWIQ",
          "name": "West India Quay",
          "lat": 51.50703,
          "lng": -0.020311
        },
        {
          "id": "940GZZDLWSV",
          "name": "West Silvertown",
          "lat": 51.502838,
          "lng": 0.02246
        },
        {
          "id": "HUBBAN",
          "name": "Bank",
          "lat": 51.513395,
          "lng": -0.089095
        },
        {
          "id": "HUBCAN",
          "name": "Canning Town",
          "lat": 51.514029,
          "lng": 0.008025
        },
        {
          "id": "HUBCAW",
          "name": "Canary Wharf",
          "lat": 51.503734,
          "lng": -0.019121
        },
        {
          "id": "HUBCUS",
          "name": "Custom House",
          "lat": 51.518757,
          "lng": 0.027418
        },
        {
          "id": "HUBCUT",
          "name": "Cutty Sark",
          "lat": 51.481675,
          "lng": -0.010802
        },
        {
          "id": "HUBGNW",
          "name": "Greenwich",
          "lat": 51.478235,
          "lng": -0.014096
        },
        {
          "id": "HUBLCY",
          "name": "London City Airport",
          "lat": 51.503419,
          "lng": 0.048749
        },
        {
          "id": "HUBLEW",
          "name": "Lewisham",
          "lat": 51.465081,
          "lng": -0.013016
        },
        {
          "id": "HUBLHS",
          "name": "Limehouse",
          "lat": 51.512469,
          "lng": -0.039799
        },
        {
          "id": "HUBRVC",
          "name": "Royal Victoria",
          "lat": 51.50934,
          "lng": 0.018505
        },
        {
          "id": "HUBSDE",
          "name": "Shadwell",
          "lat": 51.511492,
          "lng": -0.056782
        },
        {
          "id": "HUBSRA",
          "name": "Stratford",
          "lat": 51.541508,
          "lng": -0.00241
        },
        {
          "id": "HUBTOG",
          "name": "Tower Gateway",
          "lat": 51.510621,
          "lng": -0.074813
        },
        {
          "id": "HUBWEH",
          "name": "West Ham",
          "lat": 51.528178,
          "lng": 0.004997
        },
        {
          "id": "HUBWWA",
          "name": "Woolwich Arsenal",
          "lat": 51.489962,
          "lng": 0.06917
        }
      ]
    },
    {
      "id": "LIB",
      "shortName": "LIB",
      "longName": "Liberty",
      "color": "#61686B",
      "textColor": "#FFFFFF",
      "mode": 1,
      "operator": "London Overground",
      "stations": [
        {
          "id": "910GEMRSPKH",
          "name": "Emerson Park",
          "lat": 51.568642,
          "lng": 0.220113
        },
        {
          "id": "910GROMFORD",
          "name": "Romford",
          "lat": 51.574829,
          "lng": 0.183237
        },
        {
          "id": "HUBUPM",
          "name": "Upminster",
          "lat": 51.558659,
          "lng": 0.250855
        }
      ]
    },
    {
      "id": "LIO",
      "shortName": "LIO",
      "longName": "Lioness",
      "color": "#FAA61A",
      "textColor": "#FFFFFF",
      "mode": 1,
      "operator": "London Overground",
      "stations": [
        {
          "id": "910GCRPNDPK",
          "name": "Carpenders Park",
          "lat": 51.628351,
          "lng": -0.385939
        },
        {
          "id": "910GHEDSTNL",
          "name": "Headstone Lane",
          "lat": 51.602649,
          "lng": -0.35722
        },
        {
          "id": "910GHTCHEND",
          "name": "Hatch End",
          "lat": 51.609417,
          "lng": -0.368601
        },
        {
          "id": "910GKLBRNHR",
          "name": "Kilburn High Road",
          "lat": 51.537277,
          "lng": -0.192237
        },
        {
          "id": "910GSHMPSTD",
          "name": "South Hampstead",
          "lat": 51.541432,
          "lng": -0.178878
        },
        {
          "id": "910GWATFDHS",
          "name": "Watford High Street",
          "lat": 51.652655,
          "lng": -0.391711
        },
        {
          "id": "HUBBSH",
          "name": "Bushey",
          "lat": 51.645582,
          "lng": -0.384752
        },
        {
          "id": "HUBEUS",
          "name": "Euston",
          "lat": 51.527365,
          "lng": -0.132754
        },
        {
          "id": "HUBHDN",
          "name": "Harlesden",
          "lat": 51.536305,
          "lng": -0.257774
        },
        {
          "id": "HUBHRW",
          "name": "Harrow & Wealdstone",
          "lat": 51.592216,
          "lng": -0.334896
        },
        {
          "id": "HUBKNL",
          "name": "Kensal Green",
          "lat": 51.530545,
          "lng": -0.22505
        },
        {
          "id": "HUBKNT",
          "name": "Kenton",
          "lat": 51.581786,
          "lng": -0.316946
        },
        {
          "id": "HUBNWB",
          "name": "North Wembley",
          "lat": 51.56258,
          "lng": -0.303992
        },
        {
          "id": "HUBQPW",
          "name": "Queen's Park",
          "lat": 51.534443,
          "lng": -0.204882
        },
        {
          "id": "HUBSBP",
          "name": "Stonebridge Park",
          "lat": 51.544041,
          "lng": -0.275859
        },
        {
          "id": "HUBSOK",
          "name": "South Kenton",
          "lat": 51.570229,
          "lng": -0.308448
        },
        {
          "id": "HUBWFJ",
          "name": "Watford Junction",
          "lat": 51.663908,
          "lng": -0.395928
        },
        {
          "id": "HUBWIJ",
          "name": "Willesden Junction",
          "lat": 51.532556,
          "lng": -0.243006
        },
        {
          "id": "HUBWMB",
          "name": "Wembley Central",
          "lat": 51.55232,
          "lng": -0.296642
        }
      ]
    },
    {
      "id": "MIL",
      "shortName": "MIL",
      "longName": "Mildmay",
      "color": "#0072C9",
      "textColor": "#FFFFFF",
      "mode": 1,
      "operator": "London Overground",
      "stations": [
        {
          "id": "910GACTNCTL",
          "name": "Acton Central",
          "lat": 51.508716,
          "lng": -0.262971
        },
        {
          "id": "910GBRBY",
          "name": "Brondesbury",
          "lat": 51.545166,
          "lng": -0.202309
        },
        {
          "id": "910GBRBYPK",
          "name": "Brondesbury Park",
          "lat": 51.540699,
          "lng": -0.210128
        },
        {
          "id": "910GCLDNNRB",
          "name": "Caledonian Road & Barnsbury",
          "lat": 51.543041,
          "lng": -0.116729
        },
        {
          "id": "910GCMDNRD",
          "name": "Camden Road",
          "lat": 51.541791,
          "lng": -0.138701
        },
        {
          "id": "910GCNNB",
          "name": "Canonbury",
          "lat": 51.548732,
          "lng": -0.092191
        },
        {
          "id": "910GDALSKLD",
          "name": "Dalston Kingsland",
          "lat": 51.548148,
          "lng": -0.075701
        },
        {
          "id": "910GFNCHLYR",
          "name": "Finchley Road & Frognal",
          "lat": 51.550266,
          "lng": -0.183141
        },
        {
          "id": "910GGOSPLOK",
          "name": "Gospel Oak",
          "lat": 51.555335,
          "lng": -0.15077
        },
        {
          "id": "910GHACKNYC",
          "name": "Hackney Central",
          "lat": 51.547105,
          "lng": -0.056058
        },
        {
          "id": "910GHACKNYW",
          "name": "Hackney Wick",
          "lat": 51.54341,
          "lng": -0.02492
        },
        {
          "id": "910GHMPSTDH",
          "name": "Hampstead Heath",
          "lat": 51.55521,
          "lng": -0.165705
        },
        {
          "id": "910GHOMRTON",
          "name": "Homerton",
          "lat": 51.547012,
          "lng": -0.04236
        },
        {
          "id": "910GKENR",
          "name": "Kensal Rise",
          "lat": 51.534554,
          "lng": -0.219957
        },
        {
          "id": "910GKNTSHTW",
          "name": "Kentish Town West",
          "lat": 51.546548,
          "lng": -0.146655
        },
        {
          "id": "910GSACTON",
          "name": "South Acton",
          "lat": 51.499695,
          "lng": -0.270157
        },
        {
          "id": "HUBCLJ",
          "name": "Clapham Junction",
          "lat": 51.463724,
          "lng": -0.168997
        },
        {
          "id": "HUBGUN",
          "name": "Gunnersbury",
          "lat": 51.491745,
          "lng": -0.275276
        },
        {
          "id": "HUBHHY",
          "name": "Highbury & Islington",
          "lat": 51.546269,
          "lng": -0.103538
        },
        {
          "id": "HUBIMP",
          "name": "Imperial Wharf",
          "lat": 51.47555,
          "lng": -0.183084
        },
        {
          "id": "HUBKPA",
          "name": "Kensington (Olympia)",
          "lat": 51.496156,
          "lng": -0.210502
        },
        {
          "id": "HUBKWG",
          "name": "Kew Gardens",
          "lat": 51.477069,
          "lng": -0.285148
        },
        {
          "id": "HUBRMD",
          "name": "Richmond",
          "lat": 51.463152,
          "lng": -0.301448
        },
        {
          "id": "HUBSPB",
          "name": "Shepherd's Bush",
          "lat": 51.504791,
          "lng": -0.219213
        },
        {
          "id": "HUBSRA",
          "name": "Stratford",
          "lat": 51.541508,
          "lng": -0.00241
        },
        {
          "id": "HUBWBP",
          "name": "West Brompton",
          "lat": 51.487168,
          "lng": -0.195593
        },
        {
          "id": "HUBWHD",
          "name": "West Hampstead",
          "lat": 51.547533,
          "lng": -0.191357
        },
        {
          "id": "HUBWIJ",
          "name": "Willesden Junction",
          "lat": 51.532556,
          "lng": -0.243006
        }
      ]
    },
    {
      "id": "SUF",
      "shortName": "SUF",
      "longName": "Suffragette",
      "color": "#76BC21",
      "textColor": "#FFFFFF",
      "mode": 1,
      "operator": "London Overground",
      "stations": [
        {
          "id": "910GBARKRIV",
          "name": "Barking Riverside",
          "lat": 51.51953,
          "lng": 0.11596
        },
        {
          "id": "910GCROUCHH",
          "name": "Crouch Hill",
          "lat": 51.571302,
          "lng": -0.117149
        },
        {
          "id": "910GGOSPLOK",
          "name": "Gospel Oak",
          "lat": 51.555335,
          "lng": -0.15077
        },
        {
          "id": "910GHRGYGL",
          "name": "Harringay Green Lanes",
          "lat": 51.577182,
          "lng": -0.098144
        },
        {
          "id": "910GLEYTNMR",
          "name": "Leyton Midland Road",
          "lat": 51.569725,
          "lng": -0.008051
        },
        {
          "id": "910GLYTNSHR",
          "name": "Leytonstone High Road",
          "lat": 51.563554,
          "lng": 0.008416
        },
        {
          "id": "910GSTOTNHM",
          "name": "South Tottenham",
          "lat": 51.580372,
          "lng": -0.072103
        },
        {
          "id": "910GUPRHLWY",
          "name": "Upper Holloway",
          "lat": 51.563631,
          "lng": -0.129513
        },
        {
          "id": "910GWDGRNPK",
          "name": "Woodgrange Park",
          "lat": 51.549264,
          "lng": 0.044423
        },
        {
          "id": "910GWLTHQRD",
          "name": "Walthamstow Queens Road",
          "lat": 51.581503,
          "lng": -0.023846
        },
        {
          "id": "910GWNSTDPK",
          "name": "Wanstead Park",
          "lat": 51.551693,
          "lng": 0.026213
        },
        {
          "id": "HUBBHO",
          "name": "Blackhorse Road",
          "lat": 51.586768,
          "lng": -0.041185
        },
        {
          "id": "HUBBKG",
          "name": "Barking",
          "lat": 51.539413,
          "lng": 0.080988
        }
      ]
    },
    {
      "id": "WEA",
      "shortName": "WEA",
      "longName": "Weaver",
      "color": "#9B5C16",
      "textColor": "#FFFFFF",
      "mode": 1,
      "operator": "London Overground",
      "stations": [
        {
          "id": "910GBHILLPK",
          "name": "Bush Hill Park",
          "lat": 51.641519,
          "lng": -0.069221
        },
        {
          "id": "910GBRUCGRV",
          "name": "Bruce Grove",
          "lat": 51.593959,
          "lng": -0.069867
        },
        {
          "id": "910GBTHNLGR",
          "name": "Bethnal Green",
          "lat": 51.523917,
          "lng": -0.059568
        },
        {
          "id": "910GCAMHTH",
          "name": "Cambridge Heath (London)",
          "lat": 51.531973,
          "lng": -0.057279
        },
        {
          "id": "910GCHESHNT",
          "name": "Cheshunt",
          "lat": 51.702876,
          "lng": -0.02396
        },
        {
          "id": "910GCHINGFD",
          "name": "Chingford",
          "lat": 51.633087,
          "lng": 0.009897
        },
        {
          "id": "910GCLAPTON",
          "name": "Clapton",
          "lat": 51.561644,
          "lng": -0.057025
        },
        {
          "id": "910GEDMNGRN",
          "name": "Edmonton Green",
          "lat": 51.624929,
          "lng": -0.061112
        },
        {
          "id": "910GENFLDTN",
          "name": "Enfield Town",
          "lat": 51.652026,
          "lng": -0.079328
        },
        {
          "id": "910GHAKNYNM",
          "name": "Hackney Downs",
          "lat": 51.548757,
          "lng": -0.060819
        },
        {
          "id": "910GHGHMSPK",
          "name": "Highams Park",
          "lat": 51.60835,
          "lng": -0.000222
        },
        {
          "id": "910GLONFLDS",
          "name": "London Fields",
          "lat": 51.541153,
          "lng": -0.057753
        },
        {
          "id": "910GRCTRYRD",
          "name": "Rectory Road",
          "lat": 51.558502,
          "lng": -0.068267
        },
        {
          "id": "910GSBURY",
          "name": "Southbury",
          "lat": 51.648705,
          "lng": -0.052437
        },
        {
          "id": "910GSIVRST",
          "name": "Silver Street",
          "lat": 51.614688,
          "lng": -0.06724
        },
        {
          "id": "910GSTJMSST",
          "name": "St James Street (London)",
          "lat": 51.580981,
          "lng": -0.032918
        },
        {
          "id": "910GSTKNWNG",
          "name": "Stoke Newington",
          "lat": 51.565233,
          "lng": -0.072887
        },
        {
          "id": "910GSTMFDHL",
          "name": "Stamford Hill",
          "lat": 51.574467,
          "lng": -0.076682
        },
        {
          "id": "910GTHBLDSG",
          "name": "Theobalds Grove",
          "lat": 51.692457,
          "lng": -0.034831
        },
        {
          "id": "910GTURKYST",
          "name": "Turkey Street",
          "lat": 51.672628,
          "lng": -0.047217
        },
        {
          "id": "910GWDST",
          "name": "Wood Street",
          "lat": 51.58658,
          "lng": -0.002405
        },
        {
          "id": "910GWHHRTLA",
          "name": "White Hart Lane",
          "lat": 51.605037,
          "lng": -0.070914
        },
        {
          "id": "HUBLST",
          "name": "Liverpool Street",
          "lat": 51.51794,
          "lng": -0.083162
        },
        {
          "id": "HUBSVS",
          "name": "Seven Sisters",
          "lat": 51.582931,
          "lng": -0.073306
        },
        {
          "id": "HUBWHC",
          "name": "Walthamstow Central",
          "lat": 51.582948,
          "lng": -0.019842
        }
      ]
    },
    {
      "id": "WIN",
      "shortName": "WIN",
      "longName": "Windrush",
      "color": "#EE2E24",
      "textColor": "#FFFFFF",
      "mode": 1,
      "operator": "London Overground",
      "stations": [
        {
          "id": "910GANERLEY",
          "name": "Anerley",
          "lat": 51.412153,
          "lng": -0.065886
        },
        {
          "id": "910GBROCKLY",
          "name": "Brockley",
          "lat": 51.464649,
          "lng": -0.037537
        },
        {
          "id": "910GCLPHHS",
          "name": "Clapham High Street",
          "lat": 51.465481,
          "lng": -0.132522
        },
        {
          "id": "910GCNNB",
          "name": "Canonbury",
          "lat": 51.548732,
          "lng": -0.092191
        },
        {
          "id": "910GDALS",
          "name": "Dalston Junction",
          "lat": 51.546116,
          "lng": -0.075137
        },
        {
          "id": "910GDENMRKH",
          "name": "Denmark Hill",
          "lat": 51.468203,
          "lng": -0.089361
        },
        {
          "id": "910GFORESTH",
          "name": "Forest Hill",
          "lat": 51.43928,
          "lng": -0.053157
        },
        {
          "id": "910GHAGGERS",
          "name": "Haggerston",
          "lat": 51.538705,
          "lng": -0.075666
        },
        {
          "id": "910GHONROPK",
          "name": "Honor Oak Park",
          "lat": 51.449989,
          "lng": -0.045505
        },
        {
          "id": "910GHOXTON",
          "name": "Hoxton",
          "lat": 51.531512,
          "lng": -0.075681
        },
        {
          "id": "910GPCKHMQD",
          "name": "Queens Road Peckham",
          "lat": 51.473566,
          "lng": -0.057313
        },
        {
          "id": "910GPCKHMRY",
          "name": "Peckham Rye",
          "lat": 51.470034,
          "lng": -0.069414
        },
        {
          "id": "910GPENEW",
          "name": "Penge West",
          "lat": 51.417555,
          "lng": -0.06084
        },
        {
          "id": "910GRTHERHI",
          "name": "Rotherhithe",
          "lat": 51.500817,
          "lng": -0.052048
        },
        {
          "id": "910GSHRDHST",
          "name": "Shoreditch High Street",
          "lat": 51.523375,
          "lng": -0.075246
        },
        {
          "id": "910GSURREYQ",
          "name": "Surrey Quays",
          "lat": 51.493196,
          "lng": -0.047519
        },
        {
          "id": "910GWAPPING",
          "name": "Wapping",
          "lat": 51.504388,
          "lng": -0.055931
        },
        {
          "id": "910GWNDSWRD",
          "name": "Wandsworth Road",
          "lat": 51.470216,
          "lng": -0.13852
        },
        {
          "id": "HUBCLJ",
          "name": "Clapham Junction",
          "lat": 51.463724,
          "lng": -0.168997
        },
        {
          "id": "HUBCYP",
          "name": "Crystal Palace",
          "lat": 51.418111,
          "lng": -0.072605
        },
        {
          "id": "HUBHHY",
          "name": "Highbury & Islington",
          "lat": 51.546269,
          "lng": -0.103538
        },
        {
          "id": "HUBNWD",
          "name": "Norwood Junction",
          "lat": 51.39702,
          "lng": -0.075216
        },
        {
          "id": "HUBNWX",
          "name": "New Cross",
          "lat": 51.476347,
          "lng": -0.032427
        },
        {
          "id": "HUBNXG",
          "name": "New Cross Gate",
          "lat": 51.475132,
          "lng": -0.040399
        },
        {
          "id": "HUBSDE",
          "name": "Shadwell",
          "lat": 51.511492,
          "lng": -0.056782
        },
        {
          "id": "HUBSYD",
          "name": "Sydenham",
          "lat": 51.427375,
          "lng": -0.055268
        },
        {
          "id": "HUBWCY",
          "name": "West Croydon",
          "lat": 51.378786,
          "lng": -0.101939
        },
        {
          "id": "HUBZCW",
          "name": "Canada Water",
          "lat": 51.498053,
          "lng": -0.049667
        },
        {
          "id": "HUBZWL",
          "name": "Whitechapel",
          "lat": 51.519498,
          "lng": -0.059858
        }
      ]
    }
  ]
}
