{
  "city": "Paris",
  "operator": "Île-de-France Mobilités",
  "generatedAt": "2026-04-23T18:43:31Z",
  "source": "/tmp/transit-downloads/paris-gtfs.zip",
  "lines": [
    {
      "id": "1",
      "shortName": "1",
      "longName": "1",
      "color": "#FFBE00",
      "textColor": "#000000",
      "mode": 1,
      "stations": [
        {
          "id": "IDFM:71634",
          "name": "Château de Vincennes",
          "lat": 48.844312,
          "lng": 2.440356
        },
        {
          "id": "IDFM:71650",
          "name": "Bérault",
          "lat": 48.845523,
          "lng": 2.428243
        },
        {
          "id": "IDFM:71647",
          "name": "Saint-Mandé",
          "lat": 48.846138,
          "lng": 2.4188
        },
        {
          "id": "IDFM:71663",
          "name": "Porte de Vincennes",
          "lat": 48.847153,
          "lng": 2.409195
        },
        {
          "id": "IDFM:71673",
          "name": "Nation",
          "lat": 48.848838,
          "lng": 2.396333
        },
        {
          "id": "IDFM:71654",
          "name": "Reuilly - Diderot",
          "lat": 48.847271,
          "lng": 2.386233
        },
        {
          "id": "IDFM:73626",
          "name": "Gare de Lyon",
          "lat": 48.844569,
          "lng": 2.375146
        },
        {
          "id": "IDFM:463564",
          "name": "Bastille",
          "lat": 48.852589,
          "lng": 2.368726
        },
        {
          "id": "IDFM:71222",
          "name": "Saint-Paul (Le Marais)",
          "lat": 48.855042,
          "lng": 2.3615
        },
        {
          "id": "IDFM:415852",
          "name": "Hôtel de Ville",
          "lat": 48.856621,
          "lng": 2.351538
        },
        {
          "id": "IDFM:71264",
          "name": "Châtelet",
          "lat": 48.858269,
          "lng": 2.34854
        },
        {
          "id": "IDFM:73630",
          "name": "Louvre - Rivoli",
          "lat": 48.860896,
          "lng": 2.340635
        },
        {
          "id": "IDFM:71297",
          "name": "Palais Royal - Musée du Louvre",
          "lat": 48.86253,
          "lng": 2.336001
        },
        {
          "id": "IDFM:71284",
          "name": "Tuileries",
          "lat": 48.864367,
          "lng": 2.330831
        },
        {
          "id": "IDFM:71298",
          "name": "Concorde",
          "lat": 48.865568,
          "lng": 2.322051
        },
        {
          "id": "IDFM:71305",
          "name": "Champs-Élysées - Clemenceau",
          "lat": 48.867787,
          "lng": 2.313665
        },
        {
          "id": "IDFM:71318",
          "name": "Franklin D. Roosevelt",
          "lat": 48.869155,
          "lng": 2.309966
        },
        {
          "id": "IDFM:71328",
          "name": "George V",
          "lat": 48.871814,
          "lng": 2.301001
        },
        {
          "id": "IDFM:71347",
          "name": "Charles de Gaulle - Étoile",
          "lat": 48.873545,
          "lng": 2.295586
        },
        {
          "id": "IDFM:71348",
          "name": "Argentine",
          "lat": 48.875613,
          "lng": 2.289402
        },
        {
          "id": "IDFM:71379",
          "name": "Neuilly - Porte Maillot",
          "lat": 48.878061,
          "lng": 2.282047
        },
        {
          "id": "IDFM:425779",
          "name": "Les Sablons",
          "lat": 48.879928,
          "lng": 2.271153
        },
        {
          "id": "IDFM:71442",
          "name": "Pont de Neuilly",
          "lat": 48.884282,
          "lng": 2.259529
        },
        {
          "id": "IDFM:71485",
          "name": "Esplanade de la Défense",
          "lat": 48.887445,
          "lng": 2.250408
        },
        {
          "id": "IDFM:71517",
          "name": "La Défense",
          "lat": 48.891612,
          "lng": 2.239601
        }
      ]
    },
    {
      "id": "10",
      "shortName": "10",
      "longName": "10",
      "color": "#C9910D",
      "textColor": "#000000",
      "mode": 1,
      "stations": [
        {
          "id": "IDFM:70721",
          "name": "Boulogne Pont de Saint-Cloud",
          "lat": 48.840695,
          "lng": 2.228387
        },
        {
          "id": "IDFM:71147",
          "name": "Boulogne Jean Jaurès",
          "lat": 48.843048,
          "lng": 2.238395
        },
        {
          "id": "IDFM:73658",
          "name": "Michel-Ange - Molitor",
          "lat": 48.845198,
          "lng": 2.261876
        },
        {
          "id": "IDFM:71141",
          "name": "Chardon Lagache",
          "lat": 48.844928,
          "lng": 2.266492
        },
        {
          "id": "IDFM:71162",
          "name": "Mirabeau",
          "lat": 48.847341,
          "lng": 2.273558
        },
        {
          "id": "IDFM:71150",
          "name": "Javel",
          "lat": 48.84639,
          "lng": 2.277652
        },
        {
          "id": "IDFM:71156",
          "name": "Charles Michels",
          "lat": 48.846344,
          "lng": 2.286354
        },
        {
          "id": "IDFM:71158",
          "name": "Avenue Émile Zola",
          "lat": 48.846987,
          "lng": 2.294044
        },
        {
          "id": "IDFM:71199",
          "name": "La Motte-Picquet - Grenelle",
          "lat": 48.849184,
          "lng": 2.298408
        },
        {
          "id": "IDFM:71157",
          "name": "Ségur",
          "lat": 48.846714,
          "lng": 2.307218
        },
        {
          "id": "IDFM:71159",
          "name": "Duroc",
          "lat": 48.847222,
          "lng": 2.315926
        },
        {
          "id": "IDFM:71170",
          "name": "Vaneau",
          "lat": 48.848904,
          "lng": 2.321395
        },
        {
          "id": "IDFM:71203",
          "name": "Sèvres - Babylone",
          "lat": 48.851561,
          "lng": 2.326962
        },
        {
          "id": "IDFM:73639",
          "name": "Mabillon",
          "lat": 48.852832,
          "lng": 2.336226
        },
        {
          "id": "IDFM:73618",
          "name": "Odéon",
          "lat": 48.85214,
          "lng": 2.339645
        },
        {
          "id": "IDFM:73619",
          "name": "Cluny - La Sorbonne",
          "lat": 48.85063,
          "lng": 2.344724
        },
        {
          "id": "IDFM:71190",
          "name": "Maubert - Mutualité",
          "lat": 48.849791,
          "lng": 2.348632
        },
        {
          "id": "IDFM:71153",
          "name": "Cardinal Lemoine",
          "lat": 48.846476,
          "lng": 2.351467
        },
        {
          "id": "IDFM:71148",
          "name": "Jussieu",
          "lat": 48.846169,
          "lng": 2.354659
        },
        {
          "id": "IDFM:71135",
          "name": "Gare d'Austerlitz",
          "lat": 48.842354,
          "lng": 2.366833
        }
      ]
    },
    {
      "id": "11",
      "shortName": "11",
      "longName": "11",
      "color": "#704B1C",
      "textColor": "#FFFFFF",
      "mode": 1,
      "stations": [
        {
          "id": "IDFM:426280",
          "name": "Rosny Bois Perrier",
          "lat": 48.882912,
          "lng": 2.481422
        },
        {
          "id": "IDFM:490783",
          "name": "Coteaux Beauclair",
          "lat": 48.881978,
          "lng": 2.468355
        },
        {
          "id": "IDFM:490782",
          "name": "La Dhuys",
          "lat": 48.877954,
          "lng": 2.465403
        },
        {
          "id": "IDFM:71897",
          "name": "Montreuil - Hôpital",
          "lat": 48.877609,
          "lng": 2.454765
        },
        {
          "id": "IDFM:71947",
          "name": "Romainville - Carnot",
          "lat": 48.883399,
          "lng": 2.440802
        },
        {
          "id": "IDFM:490779",
          "name": "Serge Gainsbourg",
          "lat": 48.881359,
          "lng": 2.427591
        },
        {
          "id": "IDFM:71909",
          "name": "Mairie des Lilas",
          "lat": 48.879756,
          "lng": 2.416155
        },
        {
          "id": "IDFM:71889",
          "name": "Porte des Lilas",
          "lat": 48.877074,
          "lng": 2.408229
        },
        {
          "id": "IDFM:71870",
          "name": "Télégraphe",
          "lat": 48.875217,
          "lng": 2.398467
        },
        {
          "id": "IDFM:71885",
          "name": "Place des Fêtes",
          "lat": 48.877147,
          "lng": 2.393305
        },
        {
          "id": "IDFM:71868",
          "name": "Jourdain",
          "lat": 48.874384,
          "lng": 2.389349
        },
        {
          "id": "IDFM:71864",
          "name": "Pyrénées",
          "lat": 48.873962,
          "lng": 2.384998
        },
        {
          "id": "IDFM:71853",
          "name": "Belleville",
          "lat": 48.872145,
          "lng": 2.377126
        },
        {
          "id": "IDFM:71840",
          "name": "Goncourt",
          "lat": 48.87003,
          "lng": 2.370887
        },
        {
          "id": "IDFM:71311",
          "name": "République",
          "lat": 48.867692,
          "lng": 2.364154
        },
        {
          "id": "IDFM:71293",
          "name": "Arts et Métiers",
          "lat": 48.865532,
          "lng": 2.357132
        },
        {
          "id": "IDFM:71273",
          "name": "Rambuteau",
          "lat": 48.86052,
          "lng": 2.353269
        },
        {
          "id": "IDFM:415852",
          "name": "Hôtel de Ville",
          "lat": 48.856621,
          "lng": 2.351538
        },
        {
          "id": "IDFM:71264",
          "name": "Châtelet",
          "lat": 48.858269,
          "lng": 2.34854
        }
      ]
    },
    {
      "id": "12",
      "shortName": "12",
      "longName": "12",
      "color": "#007852",
      "textColor": "#FFFFFF",
      "mode": 1,
      "stations": [
        {
          "id": "IDFM:72524",
          "name": "Mairie d'Aubervilliers",
          "lat": 48.914183,
          "lng": 2.381378
        },
        {
          "id": "IDFM:72491",
          "name": "Aimé Césaire",
          "lat": 48.90826,
          "lng": 2.377751
        },
        {
          "id": "IDFM:74041",
          "name": "Front Populaire",
          "lat": 48.906542,
          "lng": 2.365643
        },
        {
          "id": "IDFM:72064",
          "name": "Porte de la Chapelle",
          "lat": 48.897633,
          "lng": 2.359416
        },
        {
          "id": "IDFM:71510",
          "name": "Marx Dormoy",
          "lat": 48.890237,
          "lng": 2.359644
        },
        {
          "id": "IDFM:71511",
          "name": "Marcadet - Poissonniers / Eugène Sue",
          "lat": 48.891383,
          "lng": 2.350274
        },
        {
          "id": "IDFM:71521",
          "name": "Jules Joffrin",
          "lat": 48.892598,
          "lng": 2.344673
        },
        {
          "id": "IDFM:71492",
          "name": "Lamarck - Caulaincourt",
          "lat": 48.889566,
          "lng": 2.339679
        },
        {
          "id": "IDFM:71432",
          "name": "Abbesses",
          "lat": 48.884608,
          "lng": 2.338228
        },
        {
          "id": "IDFM:71409",
          "name": "Pigalle",
          "lat": 48.882269,
          "lng": 2.337344
        },
        {
          "id": "IDFM:71366",
          "name": "Saint-Georges",
          "lat": 48.8787,
          "lng": 2.33754
        },
        {
          "id": "IDFM:71350",
          "name": "Notre-Dame-de-Lorette",
          "lat": 48.875869,
          "lng": 2.337917
        },
        {
          "id": "IDFM:71355",
          "name": "Trinité - d'Estienne d'Orves",
          "lat": 48.876501,
          "lng": 2.331899
        },
        {
          "id": "IDFM:71370",
          "name": "Gare Saint-Lazare",
          "lat": 48.875942,
          "lng": 2.32527
        },
        {
          "id": "IDFM:71324",
          "name": "Madeleine",
          "lat": 48.870028,
          "lng": 2.324719
        },
        {
          "id": "IDFM:71298",
          "name": "Concorde",
          "lat": 48.865568,
          "lng": 2.322051
        },
        {
          "id": "IDFM:73642",
          "name": "Assemblée Nationale",
          "lat": 48.861505,
          "lng": 2.320884
        },
        {
          "id": "IDFM:71270",
          "name": "Solférino",
          "lat": 48.858681,
          "lng": 2.323244
        },
        {
          "id": "IDFM:71227",
          "name": "Rue du Bac",
          "lat": 48.856097,
          "lng": 2.325793
        },
        {
          "id": "IDFM:71203",
          "name": "Sèvres - Babylone",
          "lat": 48.851561,
          "lng": 2.326962
        },
        {
          "id": "IDFM:73640",
          "name": "Rennes",
          "lat": 48.848651,
          "lng": 2.328321
        },
        {
          "id": "IDFM:71138",
          "name": "Notre-Dame des Champs",
          "lat": 48.844916,
          "lng": 2.328751
        },
        {
          "id": "IDFM:71139",
          "name": "Gare Montparnasse",
          "lat": 48.840672,
          "lng": 2.319343
        },
        {
          "id": "IDFM:73641",
          "name": "Falguière",
          "lat": 48.845454,
          "lng": 2.317386
        },
        {
          "id": "IDFM:71125",
          "name": "Pasteur",
          "lat": 48.842441,
          "lng": 2.312521
        },
        {
          "id": "IDFM:71113",
          "name": "Volontaires",
          "lat": 48.841521,
          "lng": 2.308241
        },
        {
          "id": "IDFM:71091",
          "name": "Vaugirard",
          "lat": 48.840431,
          "lng": 2.300891
        },
        {
          "id": "IDFM:71075",
          "name": "Convention",
          "lat": 48.83732,
          "lng": 2.297295
        },
        {
          "id": "IDFM:71045",
          "name": "Porte de Versailles",
          "lat": 48.832781,
          "lng": 2.287799
        },
        {
          "id": "IDFM:70990",
          "name": "Corentin Celton",
          "lat": 48.827031,
          "lng": 2.279085
        },
        {
          "id": "IDFM:70671",
          "name": "Mairie d'Issy",
          "lat": 48.824574,
          "lng": 2.273637
        }
      ]
    },
    {
      "id": "13",
      "shortName": "13",
      "longName": "13",
      "color": "#6EC4E8",
      "textColor": "#000000",
      "mode": 1,
      "stations": [
        {
          "id": "IDFM:72358",
          "name": "Saint-Denis - Université",
          "lat": 48.946173,
          "lng": 2.3646
        },
        {
          "id": "IDFM:72326",
          "name": "Basilique de Saint-Denis / Cité Langevin",
          "lat": 48.937745,
          "lng": 2.360007
        },
        {
          "id": "IDFM:72285",
          "name": "Saint-Denis - Porte de Paris",
          "lat": 48.929643,
          "lng": 2.357753
        },
        {
          "id": "IDFM:72217",
          "name": "Carrefour Pleyel",
          "lat": 48.919489,
          "lng": 2.34342
        },
        {
          "id": "IDFM:72168",
          "name": "Mairie de Saint-Ouen",
          "lat": 48.912523,
          "lng": 2.334285
        },
        {
          "id": "IDFM:72128",
          "name": "Garibaldi",
          "lat": 48.906152,
          "lng": 2.331931
        },
        {
          "id": "IDFM:72078",
          "name": "Porte de Saint-Ouen",
          "lat": 48.897679,
          "lng": 2.329251
        },
        {
          "id": "IDFM:71528",
          "name": "Guy Môquet",
          "lat": 48.892849,
          "lng": 2.327492
        },
        {
          "id": "IDFM:71474",
          "name": "La Fourche",
          "lat": 48.887513,
          "lng": 2.325399
        },
        {
          "id": "IDFM:71435",
          "name": "Place de Clichy",
          "lat": 48.884036,
          "lng": 2.328492
        },
        {
          "id": "IDFM:71382",
          "name": "Liège",
          "lat": 48.879655,
          "lng": 2.328181
        },
        {
          "id": "IDFM:71370",
          "name": "Gare Saint-Lazare",
          "lat": 48.875942,
          "lng": 2.32527
        },
        {
          "id": "IDFM:71346",
          "name": "Miromesnil",
          "lat": 48.873561,
          "lng": 2.314591
        },
        {
          "id": "IDFM:71305",
          "name": "Champs-Élysées - Clemenceau",
          "lat": 48.867787,
          "lng": 2.313665
        },
        {
          "id": "IDFM:71274",
          "name": "Invalides",
          "lat": 48.861465,
          "lng": 2.313776
        },
        {
          "id": "IDFM:71232",
          "name": "Varenne",
          "lat": 48.856395,
          "lng": 2.315008
        },
        {
          "id": "IDFM:71204",
          "name": "Saint-François-Xavier",
          "lat": 48.851274,
          "lng": 2.314353
        },
        {
          "id": "IDFM:71159",
          "name": "Duroc",
          "lat": 48.847222,
          "lng": 2.315926
        },
        {
          "id": "IDFM:71139",
          "name": "Gare Montparnasse",
          "lat": 48.840672,
          "lng": 2.319343
        },
        {
          "id": "IDFM:73675",
          "name": "Gaîté",
          "lat": 48.838148,
          "lng": 2.322326
        },
        {
          "id": "IDFM:412687",
          "name": "Pernety",
          "lat": 48.83313,
          "lng": 2.319244
        },
        {
          "id": "IDFM:71039",
          "name": "Plaisance",
          "lat": 48.831708,
          "lng": 2.314304
        },
        {
          "id": "IDFM:71006",
          "name": "Porte de Vanves",
          "lat": 48.826998,
          "lng": 2.305444
        },
        {
          "id": "IDFM:73766",
          "name": "Malakoff - Plateau de Vanves",
          "lat": 48.822548,
          "lng": 2.298863
        },
        {
          "id": "IDFM:70562",
          "name": "Malakoff - Rue Etienne Dolet",
          "lat": 48.814765,
          "lng": 2.296652
        },
        {
          "id": "IDFM:461505",
          "name": "Châtillon - Montrouge",
          "lat": 48.810586,
          "lng": 2.30268
        }
      ]
    },
    {
      "id": "14",
      "shortName": "14",
      "longName": "14",
      "color": "#62259D",
      "textColor": "#FFFFFF",
      "mode": 1,
      "stations": [
        {
          "id": "IDFM:63284",
          "name": "Aéroport d’Orly (Terminaux 1-2-3)",
          "lat": 48.728629,
          "lng": 2.361006
        },
        {
          "id": "IDFM:69677",
          "name": "Thiais - Orly (Pont de Rungis)",
          "lat": 48.747232,
          "lng": 2.371673
        },
        {
          "id": "IDFM:73753",
          "name": "Chevilly-Larue (Marché International)",
          "lat": 48.75905,
          "lng": 2.366572
        },
        {
          "id": "IDFM:69974",
          "name": "L'Haÿ-les-Roses",
          "lat": 48.775537,
          "lng": 2.354029
        },
        {
          "id": "IDFM:478860",
          "name": "Villejuif - Gustave Roussy",
          "lat": 48.793418,
          "lng": 2.349241
        },
        {
          "id": "IDFM:70445",
          "name": "Hôpital Bicêtre",
          "lat": 48.810413,
          "lng": 2.350125
        },
        {
          "id": "IDFM:70645",
          "name": "Maison Blanche",
          "lat": 48.821885,
          "lng": 2.358624
        },
        {
          "id": "IDFM:71557",
          "name": "Olympiades",
          "lat": 48.826933,
          "lng": 2.367518
        },
        {
          "id": "IDFM:71572",
          "name": "Bibliothèque François Mitterrand",
          "lat": 48.829761,
          "lng": 2.376726
        },
        {
          "id": "IDFM:71576",
          "name": "Cour Saint-Emilion",
          "lat": 48.833335,
          "lng": 2.386541
        },
        {
          "id": "IDFM:71607",
          "name": "Bercy",
          "lat": 48.839016,
          "lng": 2.381282
        },
        {
          "id": "IDFM:73626",
          "name": "Gare de Lyon",
          "lat": 48.844569,
          "lng": 2.375146
        },
        {
          "id": "IDFM:71264",
          "name": "Châtelet",
          "lat": 48.858269,
          "lng": 2.34854
        },
        {
          "id": "IDFM:73788",
          "name": "Pyramides",
          "lat": 48.866361,
          "lng": 2.334299
        },
        {
          "id": "IDFM:71324",
          "name": "Madeleine",
          "lat": 48.870028,
          "lng": 2.324719
        },
        {
          "id": "IDFM:71370",
          "name": "Gare Saint-Lazare",
          "lat": 48.875942,
          "lng": 2.32527
        },
        {
          "id": "IDFM:71475",
          "name": "Pont Cardinet",
          "lat": 48.887832,
          "lng": 2.315065
        },
        {
          "id": "IDFM:71545",
          "name": "Porte de Clichy",
          "lat": 48.894408,
          "lng": 2.313812
        },
        {
          "id": "IDFM:72126",
          "name": "Saint-Ouen",
          "lat": 48.904106,
          "lng": 2.320669
        },
        {
          "id": "IDFM:72168",
          "name": "Mairie de Saint-Ouen",
          "lat": 48.912523,
          "lng": 2.334285
        },
        {
          "id": "IDFM:490784",
          "name": "Saint-Denis - Pleyel",
          "lat": 48.917825,
          "lng": 2.345017
        }
      ]
    },
    {
      "id": "2",
      "shortName": "2",
      "longName": "2",
      "color": "#0055C8",
      "textColor": "#FFFFFF",
      "mode": 1,
      "stations": [
        {
          "id": "IDFM:71673",
          "name": "Nation",
          "lat": 48.848838,
          "lng": 2.396333
        },
        {
          "id": "IDFM:71697",
          "name": "Avron",
          "lat": 48.851317,
          "lng": 2.398485
        },
        {
          "id": "IDFM:71728",
          "name": "Alexandre Dumas",
          "lat": 48.856314,
          "lng": 2.394229
        },
        {
          "id": "IDFM:71751",
          "name": "Philippe Auguste",
          "lat": 48.858012,
          "lng": 2.390223
        },
        {
          "id": "IDFM:71787",
          "name": "Père Lachaise",
          "lat": 48.862785,
          "lng": 2.387202
        },
        {
          "id": "IDFM:71815",
          "name": "Ménilmontant",
          "lat": 48.866868,
          "lng": 2.383303
        },
        {
          "id": "IDFM:71834",
          "name": "Couronnes",
          "lat": 48.868957,
          "lng": 2.380586
        },
        {
          "id": "IDFM:71853",
          "name": "Belleville",
          "lat": 48.872145,
          "lng": 2.377126
        },
        {
          "id": "IDFM:71893",
          "name": "Colonel Fabien",
          "lat": 48.877789,
          "lng": 2.370507
        },
        {
          "id": "IDFM:71940",
          "name": "Jaurès",
          "lat": 48.882458,
          "lng": 2.370791
        },
        {
          "id": "IDFM:71961",
          "name": "Stalingrad",
          "lat": 48.884062,
          "lng": 2.366974
        },
        {
          "id": "IDFM:71434",
          "name": "La Chapelle",
          "lat": 48.884441,
          "lng": 2.360444
        },
        {
          "id": "IDFM:71426",
          "name": "Barbès - Rochechouart",
          "lat": 48.883789,
          "lng": 2.349755
        },
        {
          "id": "IDFM:71419",
          "name": "Anvers",
          "lat": 48.882868,
          "lng": 2.344134
        },
        {
          "id": "IDFM:71409",
          "name": "Pigalle",
          "lat": 48.882269,
          "lng": 2.337344
        },
        {
          "id": "IDFM:71420",
          "name": "Blanche",
          "lat": 48.883524,
          "lng": 2.33261
        },
        {
          "id": "IDFM:71435",
          "name": "Place de Clichy",
          "lat": 48.884036,
          "lng": 2.328492
        },
        {
          "id": "IDFM:71408",
          "name": "Rome",
          "lat": 48.882095,
          "lng": 2.320704
        },
        {
          "id": "IDFM:71403",
          "name": "Villiers",
          "lat": 48.881522,
          "lng": 2.315584
        },
        {
          "id": "IDFM:73671",
          "name": "Monceau",
          "lat": 48.880458,
          "lng": 2.308944
        },
        {
          "id": "IDFM:71376",
          "name": "Courcelles",
          "lat": 48.879161,
          "lng": 2.3032
        },
        {
          "id": "IDFM:71367",
          "name": "Ternes",
          "lat": 48.87825,
          "lng": 2.29814
        },
        {
          "id": "IDFM:71347",
          "name": "Charles de Gaulle - Étoile",
          "lat": 48.873545,
          "lng": 2.295586
        },
        {
          "id": "IDFM:71315",
          "name": "Victor Hugo",
          "lat": 48.869747,
          "lng": 2.28527
        },
        {
          "id": "IDFM:474152",
          "name": "Porte Dauphine",
          "lat": 48.871035,
          "lng": 2.276168
        }
      ]
    },
    {
      "id": "3",
      "shortName": "3",
      "longName": "3",
      "color": "#6E6E00",
      "textColor": "#FFFFFF",
      "mode": 1,
      "stations": [
        {
          "id": "IDFM:72057",
          "name": "Pont de Levallois - Bécon",
          "lat": 48.897211,
          "lng": 2.279627
        },
        {
          "id": "IDFM:71519",
          "name": "Anatole France",
          "lat": 48.89181,
          "lng": 2.284864
        },
        {
          "id": "IDFM:73667",
          "name": "Louise Michel",
          "lat": 48.888597,
          "lng": 2.288107
        },
        {
          "id": "IDFM:71450",
          "name": "Porte de Champerret",
          "lat": 48.885712,
          "lng": 2.293014
        },
        {
          "id": "IDFM:71453",
          "name": "Péreire Levallois",
          "lat": 48.885126,
          "lng": 2.2974
        },
        {
          "id": "IDFM:71423",
          "name": "Wagram",
          "lat": 48.883487,
          "lng": 2.303995
        },
        {
          "id": "IDFM:71416",
          "name": "Malesherbes",
          "lat": 48.882857,
          "lng": 2.309346
        },
        {
          "id": "IDFM:71403",
          "name": "Villiers",
          "lat": 48.881522,
          "lng": 2.315584
        },
        {
          "id": "IDFM:73617",
          "name": "Europe",
          "lat": 48.878798,
          "lng": 2.322901
        },
        {
          "id": "IDFM:71370",
          "name": "Gare Saint-Lazare",
          "lat": 48.875942,
          "lng": 2.32527
        },
        {
          "id": "IDFM:482368",
          "name": "Havre - Caumartin",
          "lat": 48.873574,
          "lng": 2.327154
        },
        {
          "id": "IDFM:71337",
          "name": "Opéra",
          "lat": 48.871258,
          "lng": 2.331888
        },
        {
          "id": "IDFM:71313",
          "name": "Quatre Septembre",
          "lat": 48.86964,
          "lng": 2.337662
        },
        {
          "id": "IDFM:73635",
          "name": "Bourse",
          "lat": 48.868744,
          "lng": 2.340747
        },
        {
          "id": "IDFM:73634",
          "name": "Sentier",
          "lat": 48.867454,
          "lng": 2.346646
        },
        {
          "id": "IDFM:73636",
          "name": "Réaumur - Sébastopol",
          "lat": 48.866093,
          "lng": 2.351857
        },
        {
          "id": "IDFM:71293",
          "name": "Arts et Métiers",
          "lat": 48.865532,
          "lng": 2.357132
        },
        {
          "id": "IDFM:71296",
          "name": "Temple",
          "lat": 48.866454,
          "lng": 2.361299
        },
        {
          "id": "IDFM:71311",
          "name": "République",
          "lat": 48.867692,
          "lng": 2.364154
        },
        {
          "id": "IDFM:71801",
          "name": "Parmentier",
          "lat": 48.865633,
          "lng": 2.374505
        },
        {
          "id": "IDFM:71795",
          "name": "Rue Saint-Maur",
          "lat": 48.864218,
          "lng": 2.379974
        },
        {
          "id": "IDFM:71787",
          "name": "Père Lachaise",
          "lat": 48.862785,
          "lng": 2.387202
        },
        {
          "id": "IDFM:71808",
          "name": "Gambetta",
          "lat": 48.865056,
          "lng": 2.39868
        },
        {
          "id": "IDFM:71799",
          "name": "Porte de Bagnolet",
          "lat": 48.863991,
          "lng": 2.408827
        },
        {
          "id": "IDFM:71817",
          "name": "Gallieni",
          "lat": 48.864988,
          "lng": 2.41672
        }
      ]
    },
    {
      "id": "3B",
      "shortName": "3B",
      "longName": "3B",
      "color": "#6EC4E8",
      "textColor": "#000000",
      "mode": 1,
      "stations": [
        {
          "id": "IDFM:71808",
          "name": "Gambetta",
          "lat": 48.865056,
          "lng": 2.39868
        },
        {
          "id": "IDFM:71828",
          "name": "Pelleport",
          "lat": 48.868352,
          "lng": 2.401444
        },
        {
          "id": "IDFM:71860",
          "name": "Saint-Fargeau",
          "lat": 48.871847,
          "lng": 2.40441
        },
        {
          "id": "IDFM:71889",
          "name": "Porte des Lilas",
          "lat": 48.877074,
          "lng": 2.408229
        }
      ]
    },
    {
      "id": "4",
      "shortName": "4",
      "longName": "4",
      "color": "#A0006E",
      "textColor": "#FFFFFF",
      "mode": 1,
      "stations": [
        {
          "id": "IDFM:483315",
          "name": "Bagneux - Lucie Aubrac",
          "lat": 48.803548,
          "lng": 2.317445
        },
        {
          "id": "IDFM:70441",
          "name": "Barbara",
          "lat": 48.809751,
          "lng": 2.317643
        },
        {
          "id": "IDFM:70586",
          "name": "Mairie de Montrouge",
          "lat": 48.818618,
          "lng": 2.320789
        },
        {
          "id": "IDFM:70657",
          "name": "Porte d'Orléans",
          "lat": 48.822418,
          "lng": 2.325567
        },
        {
          "id": "IDFM:71030",
          "name": "Alésia",
          "lat": 48.828182,
          "lng": 2.326848
        },
        {
          "id": "IDFM:73653",
          "name": "Mouton-Duvernet",
          "lat": 48.831107,
          "lng": 2.329685
        },
        {
          "id": "IDFM:71056",
          "name": "Denfert-Rochereau",
          "lat": 48.833894,
          "lng": 2.332769
        },
        {
          "id": "IDFM:71088",
          "name": "Raspail",
          "lat": 48.838784,
          "lng": 2.330622
        },
        {
          "id": "IDFM:71117",
          "name": "Vavin",
          "lat": 48.841888,
          "lng": 2.32926
        },
        {
          "id": "IDFM:71139",
          "name": "Gare Montparnasse",
          "lat": 48.840672,
          "lng": 2.319343
        },
        {
          "id": "IDFM:71184",
          "name": "Saint-Placide",
          "lat": 48.846707,
          "lng": 2.326623
        },
        {
          "id": "IDFM:71202",
          "name": "Saint-Sulpice",
          "lat": 48.851486,
          "lng": 2.331985
        },
        {
          "id": "IDFM:71216",
          "name": "Saint-Germain-des-Prés",
          "lat": 48.853477,
          "lng": 2.333424
        },
        {
          "id": "IDFM:73618",
          "name": "Odéon",
          "lat": 48.85214,
          "lng": 2.339645
        },
        {
          "id": "IDFM:73620",
          "name": "Saint-Michel Notre-Dame",
          "lat": 48.853236,
          "lng": 2.344255
        },
        {
          "id": "IDFM:71223",
          "name": "Cité",
          "lat": 48.855333,
          "lng": 2.346948
        },
        {
          "id": "IDFM:71264",
          "name": "Châtelet",
          "lat": 48.858269,
          "lng": 2.34854
        },
        {
          "id": "IDFM:73794",
          "name": "Les Halles",
          "lat": 48.862516,
          "lng": 2.346066
        },
        {
          "id": "IDFM:479068",
          "name": "Etienne Marcel",
          "lat": 48.86365,
          "lng": 2.349945
        },
        {
          "id": "IDFM:73636",
          "name": "Réaumur - Sébastopol",
          "lat": 48.866093,
          "lng": 2.351857
        },
        {
          "id": "IDFM:73633",
          "name": "Strasbourg - Saint-Denis",
          "lat": 48.869242,
          "lng": 2.353017
        },
        {
          "id": "IDFM:71333",
          "name": "Château d'Eau",
          "lat": 48.872202,
          "lng": 2.356573
        },
        {
          "id": "IDFM:71359",
          "name": "Gare de l'Est",
          "lat": 48.877209,
          "lng": 2.358645
        },
        {
          "id": "IDFM:71410",
          "name": "Gare du Nord",
          "lat": 48.880959,
          "lng": 2.356144
        },
        {
          "id": "IDFM:71426",
          "name": "Barbès - Rochechouart",
          "lat": 48.883789,
          "lng": 2.349755
        },
        {
          "id": "IDFM:71469",
          "name": "Château Rouge",
          "lat": 48.88748,
          "lng": 2.349518
        },
        {
          "id": "IDFM:71511",
          "name": "Marcadet - Poissonniers / Eugène Sue",
          "lat": 48.891383,
          "lng": 2.350274
        },
        {
          "id": "IDFM:71556",
          "name": "Simplon / Albert Kahn",
          "lat": 48.895001,
          "lng": 2.346771
        },
        {
          "id": "IDFM:478883",
          "name": "Porte de Clignancourt",
          "lat": 48.898183,
          "lng": 2.345162
        }
      ]
    },
    {
      "id": "5",
      "shortName": "5",
      "longName": "5",
      "color": "#FF7E2E",
      "textColor": "#000000",
      "mode": 1,
      "stations": [
        {
          "id": "IDFM:72486",
          "name": "Bobigny - Pablo Picasso",
          "lat": 48.906988,
          "lng": 2.449464
        },
        {
          "id": "IDFM:72039",
          "name": "Bobigny - Pantin - Raymond Queneau",
          "lat": 48.895341,
          "lng": 2.426264
        },
        {
          "id": "IDFM:72024",
          "name": "Église de Pantin",
          "lat": 48.893467,
          "lng": 2.413476
        },
        {
          "id": "IDFM:72004",
          "name": "Hoche",
          "lat": 48.891328,
          "lng": 2.40195
        },
        {
          "id": "IDFM:71989",
          "name": "Porte de Pantin",
          "lat": 48.888859,
          "lng": 2.394103
        },
        {
          "id": "IDFM:71972",
          "name": "Ourcq",
          "lat": 48.887152,
          "lng": 2.387147
        },
        {
          "id": "IDFM:71957",
          "name": "Laumière",
          "lat": 48.884831,
          "lng": 2.37969
        },
        {
          "id": "IDFM:71940",
          "name": "Jaurès",
          "lat": 48.882458,
          "lng": 2.370791
        },
        {
          "id": "IDFM:71961",
          "name": "Stalingrad",
          "lat": 48.884062,
          "lng": 2.366974
        },
        {
          "id": "IDFM:71410",
          "name": "Gare du Nord",
          "lat": 48.880959,
          "lng": 2.356144
        },
        {
          "id": "IDFM:71359",
          "name": "Gare de l'Est",
          "lat": 48.877209,
          "lng": 2.358645
        },
        {
          "id": "IDFM:71322",
          "name": "Jacques Bonsergent",
          "lat": 48.870912,
          "lng": 2.360808
        },
        {
          "id": "IDFM:71311",
          "name": "République",
          "lat": 48.867692,
          "lng": 2.364154
        },
        {
          "id": "IDFM:71803",
          "name": "Oberkampf",
          "lat": 48.864228,
          "lng": 2.369553
        },
        {
          "id": "IDFM:73648",
          "name": "Richard-Lenoir",
          "lat": 48.858909,
          "lng": 2.371594
        },
        {
          "id": "IDFM:73621",
          "name": "Bréguet-Sabin",
          "lat": 48.85623,
          "lng": 2.370265
        },
        {
          "id": "IDFM:463564",
          "name": "Bastille",
          "lat": 48.852589,
          "lng": 2.368726
        },
        {
          "id": "IDFM:71637",
          "name": "Quai de la Rapée",
          "lat": 48.845893,
          "lng": 2.367717
        },
        {
          "id": "IDFM:71135",
          "name": "Gare d'Austerlitz",
          "lat": 48.842354,
          "lng": 2.366833
        },
        {
          "id": "IDFM:71092",
          "name": "Saint-Marcel",
          "lat": 48.839076,
          "lng": 2.360947
        },
        {
          "id": "IDFM:71063",
          "name": "Campo-Formio",
          "lat": 48.835867,
          "lng": 2.358799
        },
        {
          "id": "IDFM:71033",
          "name": "Place d'Italie",
          "lat": 48.83108,
          "lng": 2.355868
        }
      ]
    },
    {
      "id": "6",
      "shortName": "6",
      "longName": "6",
      "color": "#6ECA97",
      "textColor": "#000000",
      "mode": 1,
      "stations": [
        {
          "id": "IDFM:71673",
          "name": "Nation",
          "lat": 48.848838,
          "lng": 2.396333
        },
        {
          "id": "IDFM:71639",
          "name": "Picpus",
          "lat": 48.845135,
          "lng": 2.402167
        },
        {
          "id": "IDFM:73650",
          "name": "Bel-Air",
          "lat": 48.84159,
          "lng": 2.401008
        },
        {
          "id": "IDFM:71614",
          "name": "Daumesnil",
          "lat": 48.839472,
          "lng": 2.395719
        },
        {
          "id": "IDFM:71606",
          "name": "Dugommier",
          "lat": 48.838748,
          "lng": 2.388609
        },
        {
          "id": "IDFM:71607",
          "name": "Bercy",
          "lat": 48.839016,
          "lng": 2.381282
        },
        {
          "id": "IDFM:71597",
          "name": "Quai de la Gare",
          "lat": 48.837009,
          "lng": 2.37324
        },
        {
          "id": "IDFM:73651",
          "name": "Chevaleret",
          "lat": 48.834858,
          "lng": 2.367687
        },
        {
          "id": "IDFM:71043",
          "name": "Nationale",
          "lat": 48.832573,
          "lng": 2.362668
        },
        {
          "id": "IDFM:71033",
          "name": "Place d'Italie",
          "lat": 48.83108,
          "lng": 2.355868
        },
        {
          "id": "IDFM:71013",
          "name": "Corvisart",
          "lat": 48.829843,
          "lng": 2.34912
        },
        {
          "id": "IDFM:71026",
          "name": "Glacière",
          "lat": 48.830893,
          "lng": 2.343869
        },
        {
          "id": "IDFM:71041",
          "name": "Saint-Jacques",
          "lat": 48.832887,
          "lng": 2.337125
        },
        {
          "id": "IDFM:71056",
          "name": "Denfert-Rochereau",
          "lat": 48.833894,
          "lng": 2.332769
        },
        {
          "id": "IDFM:71088",
          "name": "Raspail",
          "lat": 48.838784,
          "lng": 2.330622
        },
        {
          "id": "IDFM:71108",
          "name": "Edgar Quinet",
          "lat": 48.840942,
          "lng": 2.325331
        },
        {
          "id": "IDFM:71139",
          "name": "Gare Montparnasse",
          "lat": 48.840672,
          "lng": 2.319343
        },
        {
          "id": "IDFM:71125",
          "name": "Pasteur",
          "lat": 48.842441,
          "lng": 2.312521
        },
        {
          "id": "IDFM:71144",
          "name": "Sèvres-Lecourbe",
          "lat": 48.84515,
          "lng": 2.310352
        },
        {
          "id": "IDFM:71167",
          "name": "Cambronne",
          "lat": 48.847815,
          "lng": 2.301698
        },
        {
          "id": "IDFM:71199",
          "name": "La Motte-Picquet - Grenelle",
          "lat": 48.849184,
          "lng": 2.298408
        },
        {
          "id": "IDFM:71197",
          "name": "Dupleix",
          "lat": 48.851174,
          "lng": 2.292611
        },
        {
          "id": "IDFM:473829",
          "name": "Bir-Hakeim",
          "lat": 48.854148,
          "lng": 2.289763
        },
        {
          "id": "IDFM:71237",
          "name": "Passy",
          "lat": 48.857868,
          "lng": 2.285371
        },
        {
          "id": "IDFM:71285",
          "name": "Trocadéro",
          "lat": 48.863446,
          "lng": 2.287223
        },
        {
          "id": "IDFM:71301",
          "name": "Boissière",
          "lat": 48.867105,
          "lng": 2.290159
        },
        {
          "id": "IDFM:73656",
          "name": "Kléber",
          "lat": 48.871396,
          "lng": 2.293236
        },
        {
          "id": "IDFM:71347",
          "name": "Charles de Gaulle - Étoile",
          "lat": 48.873545,
          "lng": 2.295586
        }
      ]
    },
    {
      "id": "7",
      "shortName": "7",
      "longName": "7",
      "color": "#F49FB3",
      "textColor": "#000000",
      "mode": 1,
      "stations": [
        {
          "id": "IDFM:73696",
          "name": "La Courneuve - 8 Mai 1945",
          "lat": 48.91997,
          "lng": 2.409931
        },
        {
          "id": "IDFM:73695",
          "name": "Fort d'Aubervilliers",
          "lat": 48.914685,
          "lng": 2.404076
        },
        {
          "id": "IDFM:72460",
          "name": "Aubervilliers-Pantin Quatre Chemins",
          "lat": 48.903708,
          "lng": 2.392286
        },
        {
          "id": "IDFM:72430",
          "name": "Porte de la Villette",
          "lat": 48.897503,
          "lng": 2.386214
        },
        {
          "id": "IDFM:72031",
          "name": "Corentin Cariou",
          "lat": 48.894906,
          "lng": 2.382111
        },
        {
          "id": "IDFM:72013",
          "name": "Crimée",
          "lat": 48.890841,
          "lng": 2.377039
        },
        {
          "id": "IDFM:71977",
          "name": "Riquet",
          "lat": 48.88833,
          "lng": 2.373973
        },
        {
          "id": "IDFM:71961",
          "name": "Stalingrad",
          "lat": 48.884062,
          "lng": 2.366974
        },
        {
          "id": "IDFM:71407",
          "name": "Louis Blanc",
          "lat": 48.881606,
          "lng": 2.365252
        },
        {
          "id": "IDFM:474149",
          "name": "Château Landon",
          "lat": 48.879653,
          "lng": 2.362378
        },
        {
          "id": "IDFM:71359",
          "name": "Gare de l'Est",
          "lat": 48.877209,
          "lng": 2.358645
        },
        {
          "id": "IDFM:71363",
          "name": "Poissonnière",
          "lat": 48.877533,
          "lng": 2.348933
        },
        {
          "id": "IDFM:71351",
          "name": "Cadet",
          "lat": 48.876075,
          "lng": 2.343422
        },
        {
          "id": "IDFM:478885",
          "name": "Le Peletier",
          "lat": 48.874678,
          "lng": 2.339643
        },
        {
          "id": "IDFM:73689",
          "name": "Chaussée d'Antin - La Fayette",
          "lat": 48.873643,
          "lng": 2.333275
        },
        {
          "id": "IDFM:71337",
          "name": "Opéra",
          "lat": 48.871258,
          "lng": 2.331888
        },
        {
          "id": "IDFM:73788",
          "name": "Pyramides",
          "lat": 48.866361,
          "lng": 2.334299
        },
        {
          "id": "IDFM:71297",
          "name": "Palais Royal - Musée du Louvre",
          "lat": 48.86253,
          "lng": 2.336001
        },
        {
          "id": "IDFM:71253",
          "name": "Pont Neuf",
          "lat": 48.859,
          "lng": 2.343269
        },
        {
          "id": "IDFM:71264",
          "name": "Châtelet",
          "lat": 48.858269,
          "lng": 2.34854
        },
        {
          "id": "IDFM:71217",
          "name": "Pont Marie (Cité des Arts)",
          "lat": 48.853734,
          "lng": 2.356454
        },
        {
          "id": "IDFM:71201",
          "name": "Sully - Morland",
          "lat": 48.8511,
          "lng": 2.362598
        },
        {
          "id": "IDFM:71148",
          "name": "Jussieu",
          "lat": 48.846169,
          "lng": 2.354659
        },
        {
          "id": "IDFM:71133",
          "name": "Place Monge",
          "lat": 48.843147,
          "lng": 2.352136
        },
        {
          "id": "IDFM:71100",
          "name": "Censier - Daubenton",
          "lat": 48.840456,
          "lng": 2.351742
        },
        {
          "id": "IDFM:71076",
          "name": "Les Gobelins",
          "lat": 48.83657,
          "lng": 2.351583
        },
        {
          "id": "IDFM:71033",
          "name": "Place d'Italie",
          "lat": 48.83108,
          "lng": 2.355868
        },
        {
          "id": "IDFM:71001",
          "name": "Tolbiac",
          "lat": 48.82564,
          "lng": 2.356902
        },
        {
          "id": "IDFM:70645",
          "name": "Maison Blanche",
          "lat": 48.821885,
          "lng": 2.358624
        },
        {
          "id": "IDFM:70596",
          "name": "Porte d'Italie",
          "lat": 48.818767,
          "lng": 2.359915
        },
        {
          "id": "IDFM:70604",
          "name": "Porte de Choisy",
          "lat": 48.819797,
          "lng": 2.36501
        },
        {
          "id": "IDFM:70636",
          "name": "Porte d'Ivry",
          "lat": 48.821377,
          "lng": 2.369499
        },
        {
          "id": "IDFM:70537",
          "name": "Pierre et Marie Curie",
          "lat": 48.815568,
          "lng": 2.376607
        },
        {
          "id": "IDFM:70488",
          "name": "Mairie d'Ivry",
          "lat": 48.811051,
          "lng": 2.384099
        }
      ]
    },
    {
      "id": "7B",
      "shortName": "7B",
      "longName": "7B",
      "color": "#6ECA97",
      "textColor": "#000000",
      "mode": 1,
      "stations": [
        {
          "id": "IDFM:71911",
          "name": "Pré-Saint-Gervais",
          "lat": 48.879646,
          "lng": 2.398457
        },
        {
          "id": "IDFM:71930",
          "name": "Danube",
          "lat": 48.881879,
          "lng": 2.393516
        },
        {
          "id": "IDFM:71906",
          "name": "Botzaris",
          "lat": 48.879492,
          "lng": 2.389364
        },
        {
          "id": "IDFM:71900",
          "name": "Buttes Chaumont",
          "lat": 48.87837,
          "lng": 2.38181
        },
        {
          "id": "IDFM:71920",
          "name": "Bolivar",
          "lat": 48.880789,
          "lng": 2.373927
        },
        {
          "id": "IDFM:71940",
          "name": "Jaurès",
          "lat": 48.882458,
          "lng": 2.370791
        },
        {
          "id": "IDFM:71407",
          "name": "Louis Blanc",
          "lat": 48.881606,
          "lng": 2.365252
        }
      ]
    },
    {
      "id": "8",
      "shortName": "8",
      "longName": "8",
      "color": "#D282BE",
      "textColor": "#000000",
      "mode": 1,
      "stations": [
        {
          "id": "IDFM:71073",
          "name": "Balard",
          "lat": 48.836482,
          "lng": 2.278103
        },
        {
          "id": "IDFM:71086",
          "name": "Lourmel",
          "lat": 48.838459,
          "lng": 2.28234
        },
        {
          "id": "IDFM:412992",
          "name": "Boucicaut",
          "lat": 48.840976,
          "lng": 2.288151
        },
        {
          "id": "IDFM:71137",
          "name": "Félix Faure",
          "lat": 48.842994,
          "lng": 2.292572
        },
        {
          "id": "IDFM:71132",
          "name": "Commerce",
          "lat": 48.844611,
          "lng": 2.29377
        },
        {
          "id": "IDFM:71199",
          "name": "La Motte-Picquet - Grenelle",
          "lat": 48.849184,
          "lng": 2.298408
        },
        {
          "id": "IDFM:71224",
          "name": "École Militaire",
          "lat": 48.854453,
          "lng": 2.305663
        },
        {
          "id": "IDFM:71242",
          "name": "La Tour-Maubourg",
          "lat": 48.857445,
          "lng": 2.309903
        },
        {
          "id": "IDFM:71274",
          "name": "Invalides",
          "lat": 48.861465,
          "lng": 2.313776
        },
        {
          "id": "IDFM:71298",
          "name": "Concorde",
          "lat": 48.865568,
          "lng": 2.322051
        },
        {
          "id": "IDFM:71324",
          "name": "Madeleine",
          "lat": 48.870028,
          "lng": 2.324719
        },
        {
          "id": "IDFM:71337",
          "name": "Opéra",
          "lat": 48.871258,
          "lng": 2.331888
        },
        {
          "id": "IDFM:71330",
          "name": "Richelieu - Drouot",
          "lat": 48.872035,
          "lng": 2.339008
        },
        {
          "id": "IDFM:71326",
          "name": "Grands Boulevards",
          "lat": 48.871143,
          "lng": 2.343641
        },
        {
          "id": "IDFM:71320",
          "name": "Bonne Nouvelle",
          "lat": 48.870622,
          "lng": 2.347942
        },
        {
          "id": "IDFM:73633",
          "name": "Strasbourg - Saint-Denis",
          "lat": 48.869242,
          "lng": 2.353017
        },
        {
          "id": "IDFM:71311",
          "name": "République",
          "lat": 48.867692,
          "lng": 2.364154
        },
        {
          "id": "IDFM:71277",
          "name": "Filles du Calvaire",
          "lat": 48.862468,
          "lng": 2.366064
        },
        {
          "id": "IDFM:71777",
          "name": "Saint-Sébastien - Froissart",
          "lat": 48.860968,
          "lng": 2.367248
        },
        {
          "id": "IDFM:73622",
          "name": "Chemin Vert",
          "lat": 48.857384,
          "lng": 2.367993
        },
        {
          "id": "IDFM:463564",
          "name": "Bastille",
          "lat": 48.852589,
          "lng": 2.368726
        },
        {
          "id": "IDFM:71693",
          "name": "Ledru-Rollin",
          "lat": 48.851355,
          "lng": 2.375916
        },
        {
          "id": "IDFM:74001",
          "name": "Faidherbe - Chaligny",
          "lat": 48.84986,
          "lng": 2.385064
        },
        {
          "id": "IDFM:71654",
          "name": "Reuilly - Diderot",
          "lat": 48.847271,
          "lng": 2.386233
        },
        {
          "id": "IDFM:71631",
          "name": "Montgallet",
          "lat": 48.844296,
          "lng": 2.390158
        },
        {
          "id": "IDFM:71614",
          "name": "Daumesnil",
          "lat": 48.839472,
          "lng": 2.395719
        },
        {
          "id": "IDFM:71595",
          "name": "Michel Bizot",
          "lat": 48.836893,
          "lng": 2.402677
        },
        {
          "id": "IDFM:71591",
          "name": "Porte Dorée",
          "lat": 48.835502,
          "lng": 2.4068
        },
        {
          "id": "IDFM:71579",
          "name": "Porte de Charenton",
          "lat": 48.832438,
          "lng": 2.40018
        },
        {
          "id": "IDFM:71558",
          "name": "Liberté",
          "lat": 48.826106,
          "lng": 2.407125
        },
        {
          "id": "IDFM:70648",
          "name": "Charenton - Écoles",
          "lat": 48.821572,
          "lng": 2.414191
        },
        {
          "id": "IDFM:70522",
          "name": "École Vétérinaire de Maisons-Alfort",
          "lat": 48.814614,
          "lng": 2.423121
        },
        {
          "id": "IDFM:70426",
          "name": "Maisons-Alfort - Stade",
          "lat": 48.808868,
          "lng": 2.435113
        },
        {
          "id": "IDFM:70358",
          "name": "Maisons-Alfort - Les Juilliottes",
          "lat": 48.803637,
          "lng": 2.444846
        },
        {
          "id": "IDFM:70269",
          "name": "Créteil - L'Échat",
          "lat": 48.796382,
          "lng": 2.448487
        },
        {
          "id": "IDFM:70172",
          "name": "Créteil - Université",
          "lat": 48.789955,
          "lng": 2.452271
        },
        {
          "id": "IDFM:70021",
          "name": "Créteil - Préfecture",
          "lat": 48.779666,
          "lng": 2.460123
        },
        {
          "id": "IDFM:69884",
          "name": "Pointe du Lac",
          "lat": 48.769031,
          "lng": 2.464355
        }
      ]
    },
    {
      "id": "9",
      "shortName": "9",
      "longName": "9",
      "color": "#B6BD00",
      "textColor": "#000000",
      "mode": 1,
      "stations": [
        {
          "id": "IDFM:70698",
          "name": "Pont de Sèvres",
          "lat": 48.829806,
          "lng": 2.230742
        },
        {
          "id": "IDFM:71034",
          "name": "Billancourt",
          "lat": 48.832039,
          "lng": 2.238195
        },
        {
          "id": "IDFM:71054",
          "name": "Marcel Sembat",
          "lat": 48.833718,
          "lng": 2.243497
        },
        {
          "id": "IDFM:71084",
          "name": "Porte de Saint-Cloud",
          "lat": 48.838009,
          "lng": 2.257161
        },
        {
          "id": "IDFM:71124",
          "name": "Exelmans",
          "lat": 48.84301,
          "lng": 2.260154
        },
        {
          "id": "IDFM:73658",
          "name": "Michel-Ange - Molitor",
          "lat": 48.845198,
          "lng": 2.261876
        },
        {
          "id": "IDFM:71206",
          "name": "Michel-Ange - Auteuil",
          "lat": 48.848128,
          "lng": 2.264672
        },
        {
          "id": "IDFM:73657",
          "name": "Jasmin",
          "lat": 48.852272,
          "lng": 2.268079
        },
        {
          "id": "IDFM:71243",
          "name": "Ranelagh",
          "lat": 48.85561,
          "lng": 2.270417
        },
        {
          "id": "IDFM:474150",
          "name": "La Muette",
          "lat": 48.858243,
          "lng": 2.273869
        },
        {
          "id": "IDFM:71292",
          "name": "Rue de la Pompe",
          "lat": 48.864718,
          "lng": 2.278202
        },
        {
          "id": "IDFM:71285",
          "name": "Trocadéro",
          "lat": 48.863446,
          "lng": 2.287223
        },
        {
          "id": "IDFM:71294",
          "name": "Iéna",
          "lat": 48.864665,
          "lng": 2.2942
        },
        {
          "id": "IDFM:71290",
          "name": "Alma - Marceau",
          "lat": 48.864569,
          "lng": 2.301562
        },
        {
          "id": "IDFM:71318",
          "name": "Franklin D. Roosevelt",
          "lat": 48.869155,
          "lng": 2.309966
        },
        {
          "id": "IDFM:71334",
          "name": "Saint-Philippe-du-Roule",
          "lat": 48.872789,
          "lng": 2.310934
        },
        {
          "id": "IDFM:71346",
          "name": "Miromesnil",
          "lat": 48.873561,
          "lng": 2.314591
        },
        {
          "id": "IDFM:73690",
          "name": "Saint-Augustin",
          "lat": 48.874593,
          "lng": 2.31965
        },
        {
          "id": "IDFM:482368",
          "name": "Havre - Caumartin",
          "lat": 48.873574,
          "lng": 2.327154
        },
        {
          "id": "IDFM:73689",
          "name": "Chaussée d'Antin - La Fayette",
          "lat": 48.873643,
          "lng": 2.333275
        },
        {
          "id": "IDFM:71330",
          "name": "Richelieu - Drouot",
          "lat": 48.872035,
          "lng": 2.339008
        },
        {
          "id": "IDFM:71326",
          "name": "Grands Boulevards",
          "lat": 48.871143,
          "lng": 2.343641
        },
        {
          "id": "IDFM:71320",
          "name": "Bonne Nouvelle",
          "lat": 48.870622,
          "lng": 2.347942
        },
        {
          "id": "IDFM:73633",
          "name": "Strasbourg - Saint-Denis",
          "lat": 48.869242,
          "lng": 2.353017
        },
        {
          "id": "IDFM:71311",
          "name": "République",
          "lat": 48.867692,
          "lng": 2.364154
        },
        {
          "id": "IDFM:71803",
          "name": "Oberkampf",
          "lat": 48.864228,
          "lng": 2.369553
        },
        {
          "id": "IDFM:71781",
          "name": "Saint-Ambroise",
          "lat": 48.861928,
          "lng": 2.375387
        },
        {
          "id": "IDFM:71750",
          "name": "Voltaire",
          "lat": 48.858269,
          "lng": 2.379875
        },
        {
          "id": "IDFM:73647",
          "name": "Charonne",
          "lat": 48.85466,
          "lng": 2.385533
        },
        {
          "id": "IDFM:71694",
          "name": "Rue des Boulets",
          "lat": 48.85214,
          "lng": 2.389555
        },
        {
          "id": "IDFM:71673",
          "name": "Nation",
          "lat": 48.848838,
          "lng": 2.396333
        },
        {
          "id": "IDFM:479928",
          "name": "Buzenval",
          "lat": 48.852106,
          "lng": 2.40148
        },
        {
          "id": "IDFM:71703",
          "name": "Maraîchers",
          "lat": 48.852673,
          "lng": 2.406094
        },
        {
          "id": "IDFM:71710",
          "name": "Porte de Montreuil",
          "lat": 48.853596,
          "lng": 2.410949
        },
        {
          "id": "IDFM:71725",
          "name": "Robespierre",
          "lat": 48.855643,
          "lng": 2.422224
        },
        {
          "id": "IDFM:71756",
          "name": "Croix de Chavaux",
          "lat": 48.858426,
          "lng": 2.436327
        },
        {
          "id": "IDFM:71785",
          "name": "Mairie de Montreuil",
          "lat": 48.862354,
          "lng": 2.442405
        }
      ]
    },
    {
      "id": "A",
      "shortName": "A",
      "longName": "A",
      "color": "#EB2132",
      "textColor": "#FFFFFF",
      "mode": 2,
      "stations": [
        {
          "id": "IDFM:68385",
          "name": "Marne-la-Vallée Chessy",
          "lat": 48.868565,
          "lng": 2.78334
        },
        {
          "id": "IDFM:68266",
          "name": "Val d'Europe",
          "lat": 48.855024,
          "lng": 2.773169
        },
        {
          "id": "IDFM:68105",
          "name": "Bussy-Saint-Georges",
          "lat": 48.836512,
          "lng": 2.710627
        },
        {
          "id": "IDFM:68129",
          "name": "Torcy",
          "lat": 48.839044,
          "lng": 2.65493
        },
        {
          "id": "IDFM:68123",
          "name": "Lognes",
          "lat": 48.839231,
          "lng": 2.633279
        },
        {
          "id": "IDFM:68153",
          "name": "Noisiel",
          "lat": 48.843544,
          "lng": 2.616068
        },
        {
          "id": "IDFM:73163",
          "name": "Noisy - Champs",
          "lat": 48.842912,
          "lng": 2.580537
        },
        {
          "id": "IDFM:412697",
          "name": "Noisy-le-Grand - Mont d'Est",
          "lat": 48.840828,
          "lng": 2.550354
        },
        {
          "id": "IDFM:73166",
          "name": "Bry-sur-Marne",
          "lat": 48.844498,
          "lng": 2.525953
        },
        {
          "id": "IDFM:73190",
          "name": "Neuilly-Plaisance",
          "lat": 48.853161,
          "lng": 2.514085
        },
        {
          "id": "IDFM:71718",
          "name": "Val de Fontenay",
          "lat": 48.853575,
          "lng": 2.487363
        },
        {
          "id": "IDFM:71651",
          "name": "Vincennes",
          "lat": 48.847492,
          "lng": 2.434783
        },
        {
          "id": "IDFM:71673",
          "name": "Nation",
          "lat": 48.848838,
          "lng": 2.396333
        },
        {
          "id": "IDFM:73626",
          "name": "Gare de Lyon",
          "lat": 48.844569,
          "lng": 2.375146
        },
        {
          "id": "IDFM:474151",
          "name": "Châtelet - Les Halles",
          "lat": 48.861745,
          "lng": 2.346977
        },
        {
          "id": "IDFM:478926",
          "name": "Auber",
          "lat": 48.872864,
          "lng": 2.329727
        },
        {
          "id": "IDFM:71347",
          "name": "Charles de Gaulle - Étoile",
          "lat": 48.873545,
          "lng": 2.295586
        },
        {
          "id": "IDFM:71517",
          "name": "La Défense",
          "lat": 48.891612,
          "lng": 2.239601
        },
        {
          "id": "IDFM:70945",
          "name": "Nanterre Préfecture",
          "lat": 48.896113,
          "lng": 2.221967
        },
        {
          "id": "IDFM:64741",
          "name": "Houilles - Carrières-sur-Seine",
          "lat": 48.919733,
          "lng": 2.185356
        },
        {
          "id": "IDFM:64918",
          "name": "Sartrouville",
          "lat": 48.937593,
          "lng": 2.158034
        },
        {
          "id": "IDFM:65048",
          "name": "Maisons-Laffitte",
          "lat": 48.945738,
          "lng": 2.144324
        },
        {
          "id": "IDFM:73604",
          "name": "Achères Ville",
          "lat": 48.970063,
          "lng": 2.076938
        },
        {
          "id": "IDFM:73605",
          "name": "Conflans Fin d'Oise",
          "lat": 48.990208,
          "lng": 2.074667
        },
        {
          "id": "IDFM:66436",
          "name": "Neuville Université",
          "lat": 49.014416,
          "lng": 2.079335
        },
        {
          "id": "IDFM:66696",
          "name": "Cergy Préfecture",
          "lat": 49.03599,
          "lng": 2.080128
        },
        {
          "id": "IDFM:66858",
          "name": "Cergy Saint-Christophe",
          "lat": 49.04983,
          "lng": 2.034368
        },
        {
          "id": "IDFM:66834",
          "name": "Cergy le Haut",
          "lat": 49.047777,
          "lng": 2.010883
        }
      ]
    },
    {
      "id": "B",
      "shortName": "B",
      "longName": "B",
      "color": "#5091CB",
      "textColor": "#FFFFFF",
      "mode": 2,
      "stations": [
        {
          "id": "IDFM:73699",
          "name": "Aéroport CDG - Terminal 2 (TGV)",
          "lat": 49.003956,
          "lng": 2.570647
        },
        {
          "id": "IDFM:73596",
          "name": "Aéroport CDG 1 (Terminal 3)",
          "lat": 49.010333,
          "lng": 2.560177
        },
        {
          "id": "IDFM:73568",
          "name": "Parc des Expositions",
          "lat": 48.973854,
          "lng": 2.513982
        },
        {
          "id": "IDFM:73547",
          "name": "Villepinte",
          "lat": 48.962813,
          "lng": 2.512282
        },
        {
          "id": "IDFM:73491",
          "name": "Sevran Beaudottes",
          "lat": 48.947384,
          "lng": 2.524005
        },
        {
          "id": "IDFM:72646",
          "name": "Aulnay-sous-Bois",
          "lat": 48.932024,
          "lng": 2.495435
        },
        {
          "id": "IDFM:72648",
          "name": "Le Blanc-Mesnil",
          "lat": 48.932451,
          "lng": 2.47654
        },
        {
          "id": "IDFM:72652",
          "name": "Drancy",
          "lat": 48.932909,
          "lng": 2.455107
        },
        {
          "id": "IDFM:72641",
          "name": "Le Bourget",
          "lat": 48.93104,
          "lng": 2.425563
        },
        {
          "id": "IDFM:72598",
          "name": "La Courneuve - Aubervilliers",
          "lat": 48.923599,
          "lng": 2.384916
        },
        {
          "id": "IDFM:72211",
          "name": "La Plaine Stade de France",
          "lat": 48.918304,
          "lng": 2.362007
        },
        {
          "id": "IDFM:71410",
          "name": "Gare du Nord",
          "lat": 48.880959,
          "lng": 2.356144
        },
        {
          "id": "IDFM:474151",
          "name": "Châtelet - Les Halles",
          "lat": 48.861745,
          "lng": 2.346977
        },
        {
          "id": "IDFM:73620",
          "name": "Saint-Michel Notre-Dame",
          "lat": 48.853236,
          "lng": 2.344255
        },
        {
          "id": "IDFM:71161",
          "name": "Luxembourg",
          "lat": 48.846496,
          "lng": 2.340368
        },
        {
          "id": "IDFM:71106",
          "name": "Port Royal",
          "lat": 48.840274,
          "lng": 2.336584
        },
        {
          "id": "IDFM:71056",
          "name": "Denfert-Rochereau",
          "lat": 48.833894,
          "lng": 2.332769
        },
        {
          "id": "IDFM:70623",
          "name": "Cité Universitaire",
          "lat": 48.820909,
          "lng": 2.339534
        },
        {
          "id": "IDFM:70543",
          "name": "Gentilly",
          "lat": 48.815789,
          "lng": 2.340777
        },
        {
          "id": "IDFM:70427",
          "name": "Laplace",
          "lat": 48.808462,
          "lng": 2.33387
        },
        {
          "id": "IDFM:70263",
          "name": "Arcueil - Cachan",
          "lat": 48.79908,
          "lng": 2.328156
        },
        {
          "id": "IDFM:70210",
          "name": "Bagneux",
          "lat": 48.793268,
          "lng": 2.321452
        },
        {
          "id": "IDFM:70033",
          "name": "Bourg-la-Reine",
          "lat": 48.7801,
          "lng": 2.312566
        },
        {
          "id": "IDFM:69906",
          "name": "Parc de Sceaux",
          "lat": 48.770162,
          "lng": 2.311092
        },
        {
          "id": "IDFM:69813",
          "name": "La Croix de Berny",
          "lat": 48.762387,
          "lng": 2.304297
        },
        {
          "id": "IDFM:69759",
          "name": "Antony",
          "lat": 48.754371,
          "lng": 2.302411
        },
        {
          "id": "IDFM:69647",
          "name": "Fontaine Michalon",
          "lat": 48.744195,
          "lng": 2.296379
        },
        {
          "id": "IDFM:69622",
          "name": "Les Baconnets",
          "lat": 48.739695,
          "lng": 2.288484
        },
        {
          "id": "IDFM:63320",
          "name": "Massy - Verrières",
          "lat": 48.735567,
          "lng": 2.273569
        },
        {
          "id": "IDFM:63244",
          "name": "Massy - Palaiseau",
          "lat": 48.724462,
          "lng": 2.259476
        },
        {
          "id": "IDFM:63175",
          "name": "Palaiseau",
          "lat": 48.716914,
          "lng": 2.24701
        },
        {
          "id": "IDFM:63067",
          "name": "Palaiseau - Villebon",
          "lat": 48.707303,
          "lng": 2.237852
        },
        {
          "id": "IDFM:63029",
          "name": "Lozère",
          "lat": 48.705886,
          "lng": 2.212147
        },
        {
          "id": "IDFM:63025",
          "name": "Le Guichet",
          "lat": 48.706134,
          "lng": 2.192022
        },
        {
          "id": "IDFM:62892",
          "name": "Orsay Ville",
          "lat": 48.697804,
          "lng": 2.182
        },
        {
          "id": "IDFM:62851",
          "name": "Bures-sur-Yvette",
          "lat": 48.695159,
          "lng": 2.163835
        },
        {
          "id": "IDFM:62825",
          "name": "La Hacquinière",
          "lat": 48.6953,
          "lng": 2.151611
        },
        {
          "id": "IDFM:62890",
          "name": "Gif-Sur-Yvette",
          "lat": 48.698048,
          "lng": 2.136884
        },
        {
          "id": "IDFM:62951",
          "name": "Courcelle-sur-Yvette",
          "lat": 48.700861,
          "lng": 2.098231
        },
        {
          "id": "IDFM:62978",
          "name": "Saint-Rémy-lès-Chevreuse",
          "lat": 48.702844,
          "lng": 2.070718
        }
      ]
    },
    {
      "id": "C",
      "shortName": "C",
      "longName": "C",
      "color": "#FFCC30",
      "textColor": "#000000",
      "mode": 2,
      "stations": [
        {
          "id": "IDFM:59836",
          "name": "Dourdan",
          "lat": 48.533904,
          "lng": 2.008156
        },
        {
          "id": "IDFM:59842",
          "name": "Sermaise",
          "lat": 48.5356,
          "lng": 2.069395
        },
        {
          "id": "IDFM:59882",
          "name": "Saint-Chéron",
          "lat": 48.551308,
          "lng": 2.125736
        },
        {
          "id": "IDFM:59940",
          "name": "Breuillet Village",
          "lat": 48.564606,
          "lng": 2.171326
        },
        {
          "id": "IDFM:60028",
          "name": "Breuillet - Bruyères-le-Châtel",
          "lat": 48.577333,
          "lng": 2.19184
        },
        {
          "id": "IDFM:60052",
          "name": "Égly",
          "lat": 48.582606,
          "lng": 2.222508
        },
        {
          "id": "IDFM:60072",
          "name": "Arpajon",
          "lat": 48.585902,
          "lng": 2.241218
        },
        {
          "id": "IDFM:60115",
          "name": "La Norville - Saint-Germain-lès-Arpajon",
          "lat": 48.591119,
          "lng": 2.266216
        },
        {
          "id": "IDFM:60247",
          "name": "Brétigny",
          "lat": 48.60691,
          "lng": 2.301988
        },
        {
          "id": "IDFM:60536",
          "name": "Saint-Michel-sur-Orge",
          "lat": 48.63578,
          "lng": 2.30655
        },
        {
          "id": "IDFM:60785",
          "name": "Sainte-Geneviève-des-Bois",
          "lat": 48.653477,
          "lng": 2.314094
        },
        {
          "id": "IDFM:60915",
          "name": "Épinay-sur-Orge",
          "lat": 48.669971,
          "lng": 2.333326
        },
        {
          "id": "IDFM:60987",
          "name": "Savigny-sur-Orge",
          "lat": 48.675825,
          "lng": 2.351044
        },
        {
          "id": "IDFM:478505",
          "name": "Juvisy",
          "lat": 48.689485,
          "lng": 2.384336
        },
        {
          "id": "IDFM:71572",
          "name": "Bibliothèque François Mitterrand",
          "lat": 48.829761,
          "lng": 2.376726
        },
        {
          "id": "IDFM:71135",
          "name": "Gare d'Austerlitz",
          "lat": 48.842354,
          "lng": 2.366833
        },
        {
          "id": "IDFM:73620",
          "name": "Saint-Michel Notre-Dame",
          "lat": 48.853236,
          "lng": 2.344255
        },
        {
          "id": "IDFM:71269",
          "name": "Musée d'Orsay",
          "lat": 48.860592,
          "lng": 2.325509
        },
        {
          "id": "IDFM:71274",
          "name": "Invalides",
          "lat": 48.861465,
          "lng": 2.313776
        },
        {
          "id": "IDFM:492980",
          "name": "Pont de l'Alma",
          "lat": 48.862475,
          "lng": 2.300359
        },
        {
          "id": "IDFM:73844",
          "name": "Champ de Mars Tour Eiffel",
          "lat": 48.85682,
          "lng": 2.290667
        },
        {
          "id": "IDFM:71212",
          "name": "Avenue du Président Kennedy Maison de Radio France",
          "lat": 48.853279,
          "lng": 2.280562
        },
        {
          "id": "IDFM:71229",
          "name": "Boulainvilliers",
          "lat": 48.856468,
          "lng": 2.274814
        },
        {
          "id": "IDFM:71286",
          "name": "Avenue Henri Martin",
          "lat": 48.86473,
          "lng": 2.272729
        },
        {
          "id": "IDFM:71321",
          "name": "Avenue Foch",
          "lat": 48.869853,
          "lng": 2.274771
        },
        {
          "id": "IDFM:71379",
          "name": "Neuilly - Porte Maillot",
          "lat": 48.878061,
          "lng": 2.282047
        },
        {
          "id": "IDFM:71453",
          "name": "Péreire Levallois",
          "lat": 48.885126,
          "lng": 2.2974
        },
        {
          "id": "IDFM:71545",
          "name": "Porte de Clichy",
          "lat": 48.894408,
          "lng": 2.313812
        },
        {
          "id": "IDFM:72126",
          "name": "Saint-Ouen",
          "lat": 48.904106,
          "lng": 2.320669
        },
        {
          "id": "IDFM:72225",
          "name": "Les Grésillons",
          "lat": 48.920059,
          "lng": 2.314218
        },
        {
          "id": "IDFM:72303",
          "name": "Gennevilliers",
          "lat": 48.933211,
          "lng": 2.307301
        },
        {
          "id": "IDFM:72383",
          "name": "Épinay-sur-Seine",
          "lat": 48.954676,
          "lng": 2.301551
        },
        {
          "id": "IDFM:65305",
          "name": "Saint-Gratien",
          "lat": 48.963475,
          "lng": 2.286248
        },
        {
          "id": "IDFM:65669",
          "name": "Ermont - Eaubonne",
          "lat": 48.980355,
          "lng": 2.270756
        },
        {
          "id": "IDFM:65752",
          "name": "Cernay",
          "lat": 48.985131,
          "lng": 2.256971
        },
        {
          "id": "IDFM:66005",
          "name": "Franconville - Le Plessis-Bouchard",
          "lat": 48.993475,
          "lng": 2.234653
        },
        {
          "id": "IDFM:66335",
          "name": "Montigny - Beauchamp",
          "lat": 49.007343,
          "lng": 2.197118
        },
        {
          "id": "IDFM:66491",
          "name": "Pierrelaye",
          "lat": 49.019259,
          "lng": 2.153422
        },
        {
          "id": "IDFM:66659",
          "name": "Saint-Ouen-l'Aumône Liesse",
          "lat": 49.033854,
          "lng": 2.128129
        },
        {
          "id": "IDFM:66803",
          "name": "Saint-Ouen-l'Aumône",
          "lat": 49.045149,
          "lng": 2.106374
        },
        {
          "id": "IDFM:66816",
          "name": "Pontoise",
          "lat": 49.046733,
          "lng": 2.095786
        }
      ]
    },
    {
      "id": "CDG VAL",
      "shortName": "CDG VAL",
      "longName": "CDG VAL",
      "color": "#5CC5ED",
      "textColor": "#FFFFFF",
      "mode": 0,
      "stations": [
        {
          "id": "IDFM:73699",
          "name": "Aéroport CDG - Terminal 2 (TGV)",
          "lat": 49.003956,
          "lng": 2.570647
        },
        {
          "id": "IDFM:73595",
          "name": "Parking Px",
          "lat": 49.010039,
          "lng": 2.570603
        },
        {
          "id": "IDFM:73596",
          "name": "Aéroport CDG 1 (Terminal 3)",
          "lat": 49.010333,
          "lng": 2.560177
        },
        {
          "id": "IDFM:74162",
          "name": "Tour de Contrôle / Parking Pr",
          "lat": 49.009136,
          "lng": 2.546485
        },
        {
          "id": "IDFM:69212",
          "name": "Aéroport CDG - Terminal 1",
          "lat": 49.014005,
          "lng": 2.54176
        }
      ]
    },
    {
      "id": "D",
      "shortName": "D",
      "longName": "D",
      "color": "#008B5B",
      "textColor": "#FFFFFF",
      "mode": 2,
      "stations": [
        {
          "id": "IDFM:411441",
          "name": "Creil",
          "lat": 49.264197,
          "lng": 2.469389
        },
        {
          "id": "IDFM:411429",
          "name": "Chantilly - Gouvieux",
          "lat": 49.187031,
          "lng": 2.45966
        },
        {
          "id": "IDFM:411422",
          "name": "Orry-la-Ville - Coye",
          "lat": 49.13859,
          "lng": 2.489895
        },
        {
          "id": "IDFM:411419",
          "name": "La Borne Blanche (Gare)",
          "lat": 49.126195,
          "lng": 2.506991
        },
        {
          "id": "IDFM:69450",
          "name": "Survilliers - Fosses",
          "lat": 49.099511,
          "lng": 2.525347
        },
        {
          "id": "IDFM:69300",
          "name": "Louvres",
          "lat": 49.049265,
          "lng": 2.501655
        },
        {
          "id": "IDFM:66650",
          "name": "Les Noues",
          "lat": 49.032786,
          "lng": 2.477122
        },
        {
          "id": "IDFM:66535",
          "name": "Goussainville",
          "lat": 49.023641,
          "lng": 2.46268
        },
        {
          "id": "IDFM:66009",
          "name": "Villiers-le-Bel - Gonesse - Arnouville",
          "lat": 48.994305,
          "lng": 2.416781
        },
        {
          "id": "IDFM:65582",
          "name": "Garges - Sarcelles",
          "lat": 48.976477,
          "lng": 2.390376
        },
        {
          "id": "IDFM:72787",
          "name": "Pierrefitte - Stains",
          "lat": 48.962424,
          "lng": 2.369987
        },
        {
          "id": "IDFM:72323",
          "name": "Saint-Denis",
          "lat": 48.934963,
          "lng": 2.345245
        },
        {
          "id": "IDFM:72206",
          "name": "Stade de France Saint-Denis",
          "lat": 48.918432,
          "lng": 2.351655
        },
        {
          "id": "IDFM:71410",
          "name": "Gare du Nord",
          "lat": 48.880959,
          "lng": 2.356144
        },
        {
          "id": "IDFM:474151",
          "name": "Châtelet - Les Halles",
          "lat": 48.861745,
          "lng": 2.346977
        },
        {
          "id": "IDFM:73626",
          "name": "Gare de Lyon",
          "lat": 48.844569,
          "lng": 2.375146
        },
        {
          "id": "IDFM:73625",
          "name": "Maisons-Alfort - Alfortville",
          "lat": 48.80135,
          "lng": 2.427182
        },
        {
          "id": "IDFM:73624",
          "name": "Le Vert de Maisons",
          "lat": 48.789481,
          "lng": 2.433608
        },
        {
          "id": "IDFM:69950",
          "name": "Créteil Pompadour",
          "lat": 48.771416,
          "lng": 2.435314
        },
        {
          "id": "IDFM:69671",
          "name": "Villeneuve Triage",
          "lat": 48.745844,
          "lng": 2.43795
        },
        {
          "id": "IDFM:69568",
          "name": "Villeneuve-Saint-Georges",
          "lat": 48.730572,
          "lng": 2.446653
        },
        {
          "id": "IDFM:63071",
          "name": "Vigneux-sur-Seine",
          "lat": 48.708219,
          "lng": 2.414239
        },
        {
          "id": "IDFM:478505",
          "name": "Juvisy",
          "lat": 48.689485,
          "lng": 2.384336
        },
        {
          "id": "IDFM:60981",
          "name": "Viry-Châtillon",
          "lat": 48.676043,
          "lng": 2.386151
        },
        {
          "id": "IDFM:60797",
          "name": "Grigny Centre",
          "lat": 48.653843,
          "lng": 2.395711
        },
        {
          "id": "IDFM:60542",
          "name": "Orangis Bois de l'Épine",
          "lat": 48.636519,
          "lng": 2.407509
        },
        {
          "id": "IDFM:60450",
          "name": "Évry - Courcouronnes",
          "lat": 48.625405,
          "lng": 2.427812
        },
        {
          "id": "IDFM:60422",
          "name": "Le Bras de Fer",
          "lat": 48.622955,
          "lng": 2.450966
        },
        {
          "id": "IDFM:60309",
          "name": "Corbeil-Essonnes",
          "lat": 48.613577,
          "lng": 2.47281
        }
      ]
    },
    {
      "id": "E",
      "shortName": "E",
      "longName": "E",
      "color": "#B94E9A",
      "textColor": "#FFFFFF",
      "mode": 2,
      "stations": [
        {
          "id": "IDFM:488087",
          "name": "Nanterre-La-Folie",
          "lat": 48.89829,
          "lng": 2.226981
        },
        {
          "id": "IDFM:71517",
          "name": "La Défense",
          "lat": 48.891612,
          "lng": 2.239601
        },
        {
          "id": "IDFM:71379",
          "name": "Neuilly - Porte Maillot",
          "lat": 48.878061,
          "lng": 2.282047
        },
        {
          "id": "IDFM:73688",
          "name": "Haussmann Saint-Lazare",
          "lat": 48.874999,
          "lng": 2.328646
        },
        {
          "id": "IDFM:478733",
          "name": "Magenta",
          "lat": 48.88081,
          "lng": 2.358696
        },
        {
          "id": "IDFM:73798",
          "name": "Rosa Parks",
          "lat": 48.896776,
          "lng": 2.374294
        },
        {
          "id": "IDFM:72421",
          "name": "Pantin",
          "lat": 48.897444,
          "lng": 2.401157
        },
        {
          "id": "IDFM:72041",
          "name": "Noisy-le-Sec",
          "lat": 48.896846,
          "lng": 2.460824
        },
        {
          "id": "IDFM:426280",
          "name": "Rosny Bois Perrier",
          "lat": 48.882912,
          "lng": 2.481422
        },
        {
          "id": "IDFM:71935",
          "name": "Rosny-sous-Bois",
          "lat": 48.87113,
          "lng": 2.486454
        },
        {
          "id": "IDFM:71718",
          "name": "Val de Fontenay",
          "lat": 48.853575,
          "lng": 2.487363
        },
        {
          "id": "IDFM:71609",
          "name": "Nogent - Le Perreux",
          "lat": 48.839286,
          "lng": 2.494105
        },
        {
          "id": "IDFM:73098",
          "name": "Les Boullereaux Champigny",
          "lat": 48.824881,
          "lng": 2.511051
        },
        {
          "id": "IDFM:73097",
          "name": "Villiers-sur-Marne - Le Plessis-Trévise",
          "lat": 48.823529,
          "lng": 2.543194
        },
        {
          "id": "IDFM:73096",
          "name": "Les Yvris Noisy-le-Grand",
          "lat": 48.823483,
          "lng": 2.580999
        },
        {
          "id": "IDFM:67897",
          "name": "Émerainville - Pontault-Combault",
          "lat": 48.806181,
          "lng": 2.617663
        },
        {
          "id": "IDFM:67839",
          "name": "Roissy-en-Brie",
          "lat": 48.795339,
          "lng": 2.650002
        },
        {
          "id": "IDFM:462934",
          "name": "Ozoir-la-Ferrière",
          "lat": 48.770235,
          "lng": 2.690088
        },
        {
          "id": "IDFM:67658",
          "name": "Gretz-Armainvilliers",
          "lat": 48.745873,
          "lng": 2.728123
        },
        {
          "id": "IDFM:67625",
          "name": "Tournan",
          "lat": 48.739185,
          "lng": 2.759257
        }
      ]
    },
    {
      "id": "H",
      "shortName": "H",
      "longName": "H",
      "color": "#84653D",
      "textColor": "#FFFFFF",
      "mode": 2,
      "stations": [
        {
          "id": "IDFM:71410",
          "name": "Gare du Nord",
          "lat": 48.880959,
          "lng": 2.356144
        },
        {
          "id": "IDFM:72323",
          "name": "Saint-Denis",
          "lat": 48.934963,
          "lng": 2.345245
        },
        {
          "id": "IDFM:65227",
          "name": "Épinay - Villetaneuse",
          "lat": 48.95841,
          "lng": 2.327941
        },
        {
          "id": "IDFM:65360",
          "name": "La Barre Ormesson",
          "lat": 48.966992,
          "lng": 2.317279
        },
        {
          "id": "IDFM:65485",
          "name": "Enghien-les-Bains",
          "lat": 48.972926,
          "lng": 2.306902
        },
        {
          "id": "IDFM:65663",
          "name": "Champ de Courses d'Enghien",
          "lat": 48.98016,
          "lng": 2.291368
        },
        {
          "id": "IDFM:65669",
          "name": "Ermont - Eaubonne",
          "lat": 48.980355,
          "lng": 2.270756
        },
        {
          "id": "IDFM:65910",
          "name": "Ermont Halte",
          "lat": 48.990533,
          "lng": 2.2632
        },
        {
          "id": "IDFM:66063",
          "name": "Gros Noyer Saint-Prix",
          "lat": 48.996472,
          "lng": 2.259447
        },
        {
          "id": "IDFM:66452",
          "name": "Saint-Leu-la-Forêt",
          "lat": 49.01538,
          "lng": 2.242502
        },
        {
          "id": "IDFM:66520",
          "name": "Vaucelles",
          "lat": 49.021425,
          "lng": 2.22999
        },
        {
          "id": "IDFM:66557",
          "name": "Taverny",
          "lat": 49.025446,
          "lng": 2.221793
        },
        {
          "id": "IDFM:66672",
          "name": "Bessancourt",
          "lat": 49.035818,
          "lng": 2.21138
        },
        {
          "id": "IDFM:66798",
          "name": "Frépillon",
          "lat": 49.046385,
          "lng": 2.199407
        },
        {
          "id": "IDFM:66934",
          "name": "Méry-sur-Oise",
          "lat": 49.058126,
          "lng": 2.190209
        },
        {
          "id": "IDFM:67065",
          "name": "Mériel",
          "lat": 49.077775,
          "lng": 2.205342
        },
        {
          "id": "IDFM:67107",
          "name": "Valmondois",
          "lat": 49.091303,
          "lng": 2.202493
        },
        {
          "id": "IDFM:67172",
          "name": "L'Isle-Adam - Parmain",
          "lat": 49.114691,
          "lng": 2.209728
        },
        {
          "id": "IDFM:67241",
          "name": "Champagne-sur-Oise",
          "lat": 49.13601,
          "lng": 2.242496
        },
        {
          "id": "IDFM:67292",
          "name": "Persan - Beaumont",
          "lat": 49.147884,
          "lng": 2.279246
        }
      ]
    },
    {
      "id": "J",
      "shortName": "J",
      "longName": "J",
      "color": "#CEC73D",
      "textColor": "#000000",
      "mode": 2,
      "stations": [
        {
          "id": "IDFM:74348",
          "name": "Gisors",
          "lat": 49.285343,
          "lng": 1.784772
        },
        {
          "id": "IDFM:411339",
          "name": "Trie-Château",
          "lat": 49.283233,
          "lng": 1.820375
        },
        {
          "id": "IDFM:411346",
          "name": "Chaumont-en-Vexin",
          "lat": 49.261285,
          "lng": 1.872898
        },
        {
          "id": "IDFM:411343",
          "name": "Liancourt-Saint-Pierre",
          "lat": 49.220605,
          "lng": 1.905423
        },
        {
          "id": "IDFM:411349",
          "name": "Lavilletertre",
          "lat": 49.202382,
          "lng": 1.920579
        },
        {
          "id": "IDFM:67352",
          "name": "Chars",
          "lat": 49.163001,
          "lng": 1.936866
        },
        {
          "id": "IDFM:67196",
          "name": "Santeuil - Le Perchay",
          "lat": 49.123798,
          "lng": 1.949131
        },
        {
          "id": "IDFM:67131",
          "name": "Us",
          "lat": 49.100222,
          "lng": 1.970531
        },
        {
          "id": "IDFM:67076",
          "name": "Montgeroult - Courcelles",
          "lat": 49.080874,
          "lng": 2.003935
        },
        {
          "id": "IDFM:67056",
          "name": "Boissy-l'Aillerie",
          "lat": 49.075273,
          "lng": 2.026695
        },
        {
          "id": "IDFM:66977",
          "name": "Osny",
          "lat": 49.063111,
          "lng": 2.057548
        },
        {
          "id": "IDFM:66816",
          "name": "Pontoise",
          "lat": 49.046733,
          "lng": 2.095786
        },
        {
          "id": "IDFM:66731",
          "name": "Saint-Ouen-l'Aumône Quartier de l'Église",
          "lat": 49.039094,
          "lng": 2.103469
        },
        {
          "id": "IDFM:66484",
          "name": "Éragny - Neuville",
          "lat": 49.017901,
          "lng": 2.090571
        },
        {
          "id": "IDFM:66095",
          "name": "Conflans Sainte-Honorine",
          "lat": 48.997073,
          "lng": 2.098249
        },
        {
          "id": "IDFM:65897",
          "name": "Herblay",
          "lat": 48.990648,
          "lng": 2.161554
        },
        {
          "id": "IDFM:65659",
          "name": "La Frette - Montigny",
          "lat": 48.980198,
          "lng": 2.181519
        },
        {
          "id": "IDFM:65399",
          "name": "Cormeilles-en-Parisis",
          "lat": 48.968261,
          "lng": 2.193638
        },
        {
          "id": "IDFM:65110",
          "name": "Val d'Argenteuil",
          "lat": 48.950489,
          "lng": 2.231659
        },
        {
          "id": "IDFM:65063",
          "name": "Argenteuil",
          "lat": 48.947019,
          "lng": 2.256806
        },
        {
          "id": "IDFM:72287",
          "name": "Le Stade",
          "lat": 48.931035,
          "lng": 2.260637
        },
        {
          "id": "IDFM:72244",
          "name": "Colombes",
          "lat": 48.923378,
          "lng": 2.259259
        },
        {
          "id": "IDFM:72179",
          "name": "Bois-Colombes",
          "lat": 48.914027,
          "lng": 2.271263
        },
        {
          "id": "IDFM:72132",
          "name": "Asnières-sur-Seine",
          "lat": 48.906067,
          "lng": 2.282267
        },
        {
          "id": "IDFM:71370",
          "name": "Gare Saint-Lazare",
          "lat": 48.875942,
          "lng": 2.32527
        }
      ]
    },
    {
      "id": "K",
      "shortName": "K",
      "longName": "K",
      "color": "#9B9842",
      "textColor": "#FFFFFF",
      "mode": 2,
      "stations": [
        {
          "id": "IDFM:71410",
          "name": "Gare du Nord",
          "lat": 48.880959,
          "lng": 2.356144
        },
        {
          "id": "IDFM:72646",
          "name": "Aulnay-sous-Bois",
          "lat": 48.932024,
          "lng": 2.495435
        },
        {
          "id": "IDFM:69065",
          "name": "Mitry - Claye",
          "lat": 48.975749,
          "lng": 2.642637
        },
        {
          "id": "IDFM:69136",
          "name": "Compans",
          "lat": 48.991081,
          "lng": 2.665898
        },
        {
          "id": "IDFM:69196",
          "name": "Thieux - Nantouillet",
          "lat": 49.008345,
          "lng": 2.679127
        },
        {
          "id": "IDFM:69254",
          "name": "Dammartin - Juilly - Saint-Mard",
          "lat": 49.032471,
          "lng": 2.699045
        },
        {
          "id": "IDFM:411406",
          "name": "Le Plessis-Belleville",
          "lat": 49.096158,
          "lng": 2.745038
        },
        {
          "id": "IDFM:411391",
          "name": "Nanteuil-le-Haudouin",
          "lat": 49.142511,
          "lng": 2.794316
        },
        {
          "id": "IDFM:411388",
          "name": "Ormoy-Villers",
          "lat": 49.200549,
          "lng": 2.837987
        },
        {
          "id": "IDFM:411397",
          "name": "Crépy-en-Valois",
          "lat": 49.231226,
          "lng": 2.887626
        }
      ]
    },
    {
      "id": "L",
      "shortName": "L",
      "longName": "L",
      "color": "#C4A4CC",
      "textColor": "#000000",
      "mode": 2,
      "stations": [
        {
          "id": "IDFM:64382",
          "name": "Saint-Nom-la-Bretèche Forêt de Marly",
          "lat": 48.8673,
          "lng": 2.050907
        },
        {
          "id": "IDFM:73603",
          "name": "L'Étang-la-Ville",
          "lat": 48.868097,
          "lng": 2.076895
        },
        {
          "id": "IDFM:64405",
          "name": "Marly-le-Roi",
          "lat": 48.871458,
          "lng": 2.097172
        },
        {
          "id": "IDFM:64341",
          "name": "Louveciennes",
          "lat": 48.861098,
          "lng": 2.122767
        },
        {
          "id": "IDFM:64301",
          "name": "Bougival",
          "lat": 48.854151,
          "lng": 2.131702
        },
        {
          "id": "IDFM:64251",
          "name": "La Celle-Saint-Cloud",
          "lat": 48.842925,
          "lng": 2.138055
        },
        {
          "id": "IDFM:70705",
          "name": "Vaucresson",
          "lat": 48.83699,
          "lng": 2.15269
        },
        {
          "id": "IDFM:70713",
          "name": "Garches - Marnes-la-Coquette",
          "lat": 48.838345,
          "lng": 2.186533
        },
        {
          "id": "IDFM:73749",
          "name": "Saint-Cloud",
          "lat": 48.84555,
          "lng": 2.216971
        },
        {
          "id": "IDFM:422067",
          "name": "Le Val d'Or",
          "lat": 48.856429,
          "lng": 2.215847
        },
        {
          "id": "IDFM:70829",
          "name": "Suresnes Mont Valérien",
          "lat": 48.871712,
          "lng": 2.221111
        },
        {
          "id": "IDFM:71422",
          "name": "Puteaux",
          "lat": 48.883079,
          "lng": 2.233432
        },
        {
          "id": "IDFM:71517",
          "name": "La Défense",
          "lat": 48.891612,
          "lng": 2.239601
        },
        {
          "id": "IDFM:73614",
          "name": "Courbevoie",
          "lat": 48.898219,
          "lng": 2.248302
        },
        {
          "id": "IDFM:72124",
          "name": "Bécon les Bruyères",
          "lat": 48.905491,
          "lng": 2.26879
        },
        {
          "id": "IDFM:72132",
          "name": "Asnières-sur-Seine",
          "lat": 48.906067,
          "lng": 2.282267
        },
        {
          "id": "IDFM:72073",
          "name": "Clichy - Levallois",
          "lat": 48.89636,
          "lng": 2.29763
        },
        {
          "id": "IDFM:71475",
          "name": "Pont Cardinet",
          "lat": 48.887832,
          "lng": 2.315065
        },
        {
          "id": "IDFM:71370",
          "name": "Gare Saint-Lazare",
          "lat": 48.875942,
          "lng": 2.32527
        }
      ]
    },
    {
      "id": "N",
      "shortName": "N",
      "longName": "N",
      "color": "#00B297",
      "textColor": "#FFFFFF",
      "mode": 2,
      "stations": [
        {
          "id": "IDFM:71139",
          "name": "Gare Montparnasse",
          "lat": 48.840672,
          "lng": 2.319343
        },
        {
          "id": "IDFM:70584",
          "name": "Vanves - Malakoff",
          "lat": 48.818683,
          "lng": 2.293951
        },
        {
          "id": "IDFM:70505",
          "name": "Clamart",
          "lat": 48.813614,
          "lng": 2.272686
        },
        {
          "id": "IDFM:70515",
          "name": "Meudon",
          "lat": 48.814364,
          "lng": 2.242879
        },
        {
          "id": "IDFM:69528",
          "name": "Gare de Bellevue",
          "lat": 48.818932,
          "lng": 2.229955
        },
        {
          "id": "IDFM:463754",
          "name": "Sèvres Rive Gauche",
          "lat": 48.820984,
          "lng": 2.214337
        },
        {
          "id": "IDFM:73718",
          "name": "Chaville Rive Gauche",
          "lat": 48.804966,
          "lng": 2.188857
        },
        {
          "id": "IDFM:63923",
          "name": "Viroflay Rive Gauche",
          "lat": 48.800822,
          "lng": 2.171467
        },
        {
          "id": "IDFM:63880",
          "name": "Versailles Chantiers",
          "lat": 48.795638,
          "lng": 2.135399
        },
        {
          "id": "IDFM:73731",
          "name": "Saint-Cyr",
          "lat": 48.799517,
          "lng": 2.073346
        },
        {
          "id": "IDFM:63999",
          "name": "Fontenay-le-Fleury",
          "lat": 48.807374,
          "lng": 2.040308
        },
        {
          "id": "IDFM:64145",
          "name": "Villepreux - Les Clayes",
          "lat": 48.823324,
          "lng": 1.992088
        },
        {
          "id": "IDFM:64195",
          "name": "Plaisir - Les Clayes",
          "lat": 48.830448,
          "lng": 1.959766
        },
        {
          "id": "IDFM:64199",
          "name": "Plaisir - Grignon",
          "lat": 48.831682,
          "lng": 1.943399
        },
        {
          "id": "IDFM:64338",
          "name": "Beynes",
          "lat": 48.859881,
          "lng": 1.875538
        },
        {
          "id": "IDFM:64572",
          "name": "Mareil-sur-Mauldre",
          "lat": 48.89302,
          "lng": 1.871849
        },
        {
          "id": "IDFM:64674",
          "name": "Maule",
          "lat": 48.909641,
          "lng": 1.857128
        },
        {
          "id": "IDFM:64945",
          "name": "Nézel - Aulnay",
          "lat": 48.938717,
          "lng": 1.840735
        },
        {
          "id": "IDFM:65326",
          "name": "Épône - Mézières",
          "lat": 48.963069,
          "lng": 1.808935
        },
        {
          "id": "IDFM:65931",
          "name": "Mantes-la-Jolie",
          "lat": 48.989054,
          "lng": 1.703417
        }
      ]
    },
    {
      "id": "ORLYVAL",
      "shortName": "ORLYVAL",
      "longName": "ORLYVAL",
      "color": "#5EC5ED",
      "textColor": "#FFFFFF",
      "mode": 0,
      "stations": [
        {
          "id": "IDFM:63278",
          "name": "Aéroport d’Orly (Terminal 4)",
          "lat": 48.729018,
          "lng": 2.368248
        },
        {
          "id": "IDFM:63284",
          "name": "Aéroport d’Orly (Terminaux 1-2-3)",
          "lat": 48.728629,
          "lng": 2.361006
        },
        {
          "id": "IDFM:69759",
          "name": "Antony",
          "lat": 48.754371,
          "lng": 2.302411
        }
      ]
    },
    {
      "id": "P",
      "shortName": "P",
      "longName": "P",
      "color": "#F58F53",
      "textColor": "#000000",
      "mode": 2,
      "stations": [
        {
          "id": "IDFM:71359",
          "name": "Gare de l'Est",
          "lat": 48.877209,
          "lng": 2.358645
        },
        {
          "id": "IDFM:68963",
          "name": "Meaux",
          "lat": 48.956846,
          "lng": 2.873711
        },
        {
          "id": "IDFM:68984",
          "name": "Trilport",
          "lat": 48.960452,
          "lng": 2.949234
        },
        {
          "id": "IDFM:68980",
          "name": "Changis - Saint-Jean",
          "lat": 48.958658,
          "lng": 3.025092
        },
        {
          "id": "IDFM:68918",
          "name": "La Ferté-sous-Jouarre",
          "lat": 48.950629,
          "lng": 3.12467
        },
        {
          "id": "IDFM:69072",
          "name": "Nanteuil - Saâcy",
          "lat": 48.973904,
          "lng": 3.219763
        },
        {
          "id": "IDFM:411385",
          "name": "Nogent-L'Artaud - Charly",
          "lat": 48.968811,
          "lng": 3.322486
        },
        {
          "id": "IDFM:411382",
          "name": "Chézy-sur-Marne",
          "lat": 48.990549,
          "lng": 3.365294
        },
        {
          "id": "IDFM:411379",
          "name": "Château-Thierry",
          "lat": 49.038037,
          "lng": 3.409455
        }
      ]
    },
    {
      "id": "R",
      "shortName": "R",
      "longName": "R",
      "color": "#F49FB3",
      "textColor": "#000000",
      "mode": 2,
      "stations": [
        {
          "id": "IDFM:478505",
          "name": "Juvisy",
          "lat": 48.689485,
          "lng": 2.384336
        },
        {
          "id": "IDFM:61926",
          "name": "Melun",
          "lat": 48.527884,
          "lng": 2.65519
        },
        {
          "id": "IDFM:61727",
          "name": "Bois-le-Roi",
          "lat": 48.474113,
          "lng": 2.690402
        },
        {
          "id": "IDFM:61579",
          "name": "Fontainebleau - Avon",
          "lat": 48.416058,
          "lng": 2.726565
        },
        {
          "id": "IDFM:61480",
          "name": "Thomery",
          "lat": 48.395658,
          "lng": 2.764181
        },
        {
          "id": "IDFM:61410",
          "name": "Moret - Veneux-les-Sablons",
          "lat": 48.377898,
          "lng": 2.8
        },