{
  "city": "Tokyo",
  "operator": "Tokyo Metro / Toei Subway",
  "generatedAt": "2026-04-26T15:33:30Z",
  "source": "tokyometro + toei GTFS feeds",
  "lines": [
    {
      "id": "A",
      "shortName": "A",
      "longName": "Asakusa Line",
      "color": "#FF535F",
      "textColor": "#FFFFFF",
      "mode": 1,
      "operator": "Toei Subway",
      "stations": [
        {
          "id": "101",
          "name": "Nishi-magome",
          "lat": 35.58705,
          "lng": 139.706086
        },
        {
          "id": "102",
          "name": "Magome",
          "lat": 35.596773,
          "lng": 139.711884
        },
        {
          "id": "103",
          "name": "Nakanobu",
          "lat": 35.605274,
          "lng": 139.713645
        },
        {
          "id": "104",
          "name": "Togoshi",
          "lat": 35.614421,
          "lng": 139.716315
        },
        {
          "id": "105",
          "name": "Gotanda",
          "lat": 35.626878,
          "lng": 139.723965
        },
        {
          "id": "106",
          "name": "Takanawadai",
          "lat": 35.631751,
          "lng": 139.730384
        },
        {
          "id": "107",
          "name": "Sengakuji",
          "lat": 35.638715,
          "lng": 139.739993
        },
        {
          "id": "108",
          "name": "Mita",
          "lat": 35.646749,
          "lng": 139.746877
        },
        {
          "id": "109",
          "name": "Daimon",
          "lat": 35.65687,
          "lng": 139.754679
        },
        {
          "id": "110",
          "name": "Shimbashi",
          "lat": 35.665386,
          "lng": 139.759338
        },
        {
          "id": "111",
          "name": "Higashi-ginza",
          "lat": 35.669915,
          "lng": 139.76735
        },
        {
          "id": "112",
          "name": "Takaracho",
          "lat": 35.675606,
          "lng": 139.771966
        },
        {
          "id": "113",
          "name": "Nihombashi",
          "lat": 35.681796,
          "lng": 139.775814
        },
        {
          "id": "114",
          "name": "Ningyocho",
          "lat": 35.686345,
          "lng": 139.782276
        },
        {
          "id": "115",
          "name": "Higashi-nihombashi",
          "lat": 35.692123,
          "lng": 139.784886
        },
        {
          "id": "116",
          "name": "Asakusabashi",
          "lat": 35.697494,
          "lng": 139.786335
        },
        {
          "id": "117",
          "name": "Kuramae",
          "lat": 35.703128,
          "lng": 139.790858
        },
        {
          "id": "118",
          "name": "Asakusa",
          "lat": 35.70892,
          "lng": 139.796542
        },
        {
          "id": "119",
          "name": "Honjo-azumabashi",
          "lat": 35.708565,
          "lng": 139.804397
        },
        {
          "id": "120",
          "name": "Oshiage",
          "lat": 35.710824,
          "lng": 139.812993
        }
      ]
    },
    {
      "id": "C",
      "shortName": "C",
      "longName": "Chiyoda Line",
      "color": "#00BB85",
      "textColor": "#FFFFFF",
      "mode": 1,
      "operator": "Tokyo Metro",
      "stations": [
        {
          "id": "501",
          "name": "Yoyogi-uehara",
          "lat": 35.669017,
          "lng": 139.679884
        },
        {
          "id": "502",
          "name": "Yoyogi-koen",
          "lat": 35.669104,
          "lng": 139.689791
        },
        {
          "id": "503",
          "name": "Meiji-jingumae<Harajuku>",
          "lat": 35.669123,
          "lng": 139.703944
        },
        {
          "id": "504",
          "name": "Omote-sando",
          "lat": 35.665652,
          "lng": 139.711346
        },
        {
          "id": "505",
          "name": "Nogizaka",
          "lat": 35.666592,
          "lng": 139.726229
        },
        {
          "id": "506",
          "name": "Akasaka",
          "lat": 35.672104,
          "lng": 139.736413
        },
        {
          "id": "507",
          "name": "Kokkai-gijidomae",
          "lat": 35.673566,
          "lng": 139.743188
        },
        {
          "id": "508",
          "name": "Kasumigaseki",
          "lat": 35.67256,
          "lng": 139.75177
        },
        {
          "id": "509",
          "name": "Hibiya",
          "lat": 35.673955,
          "lng": 139.758765
        },
        {
          "id": "510",
          "name": "Nijubashimae<Marunouchi>",
          "lat": 35.680505,
          "lng": 139.76178
        },
        {
          "id": "511",
          "name": "Otemachi",
          "lat": 35.68525,
          "lng": 139.763285
        },
        {
          "id": "512",
          "name": "Shin-ochanomizu",
          "lat": 35.696925,
          "lng": 139.76545
        },
        {
          "id": "513",
          "name": "Yushima",
          "lat": 35.706805,
          "lng": 139.769981
        },
        {
          "id": "514",
          "name": "Nezu",
          "lat": 35.717325,
          "lng": 139.76575
        },
        {
          "id": "515",
          "name": "Sendagi",
          "lat": 35.725746,
          "lng": 139.763303
        },
        {
          "id": "516",
          "name": "Nishi-nippori",
          "lat": 35.732355,
          "lng": 139.76689
        },
        {
          "id": "517",
          "name": "Machiya",
          "lat": 35.742068,
          "lng": 139.780047
        },
        {
          "id": "518",
          "name": "Kita-senju",
          "lat": 35.7492,
          "lng": 139.804403
        },
        {
          "id": "519",
          "name": "Ayase",
          "lat": 35.762285,
          "lng": 139.82489
        },
        {
          "id": "520",
          "name": "Kita-ayase",
          "lat": 35.77689,
          "lng": 139.832095
        }
      ]
    },
    {
      "id": "E",
      "shortName": "E",
      "longName": "Oedo Line",
      "color": "#CF3366",
      "textColor": "#FFFFFF",
      "mode": 1,
      "operator": "Toei Subway",
      "stations": [
        {
          "id": "429",
          "name": "Tochomae",
          "lat": 35.690607,
          "lng": 139.692677
        },
        {
          "id": "402",
          "name": "Shinjuku-nishiguchi",
          "lat": 35.693367,
          "lng": 139.699121
        },
        {
          "id": "403",
          "name": "Higashi-shinjuku",
          "lat": 35.697957,
          "lng": 139.707434
        },
        {
          "id": "404",
          "name": "Wakamatsu-kawada",
          "lat": 35.699188,
          "lng": 139.718043
        },
        {
          "id": "405",
          "name": "Ushigome-yanagicho",
          "lat": 35.699501,
          "lng": 139.72504
        },
        {
          "id": "406",
          "name": "Ushigome-kagurazaka",
          "lat": 35.700911,
          "lng": 139.735894
        },
        {
          "id": "407",
          "name": "Iidabashi",
          "lat": 35.702952,
          "lng": 139.745257
        },
        {
          "id": "408",
          "name": "Kasuga",
          "lat": 35.708493,
          "lng": 139.752487
        },
        {
          "id": "409",
          "name": "Hongo-sanchome",
          "lat": 35.70751,
          "lng": 139.760524
        },
        {
          "id": "410",
          "name": "Ueno-okachimachi",
          "lat": 35.707949,
          "lng": 139.773351
        },
        {
          "id": "411",
          "name": "Shin-okachimachi",
          "lat": 35.707009,
          "lng": 139.782166
        },
        {
          "id": "412",
          "name": "Kuramae",
          "lat": 35.705587,
          "lng": 139.792244
        },
        {
          "id": "413",
          "name": "Ryogoku",
          "lat": 35.696807,
          "lng": 139.797469
        },
        {
          "id": "414",
          "name": "Morishita",
          "lat": 35.687926,
          "lng": 139.798251
        },
        {
          "id": "415",
          "name": "Kiyosumi-shirakawa",
          "lat": 35.682355,
          "lng": 139.798758
        },
        {
          "id": "416",
          "name": "Monzen-nakacho",
          "lat": 35.672772,
          "lng": 139.795124
        },
        {
          "id": "417",
          "name": "Tsukishima",
          "lat": 35.663757,
          "lng": 139.783912
        },
        {
          "id": "418",
          "name": "Kachidoki",
          "lat": 35.658934,
          "lng": 139.777138
        },
        {
          "id": "419",
          "name": "Tsukijishijo",
          "lat": 35.664919,
          "lng": 139.766929
        },
        {
          "id": "420",
          "name": "Shiodome",
          "lat": 35.663193,
          "lng": 139.760225
        },
        {
          "id": "421",
          "name": "Daimon",
          "lat": 35.656671,
          "lng": 139.755696
        },
        {
          "id": "422",
          "name": "Akabanebashi",
          "lat": 35.654985,
          "lng": 139.743989
        },
        {
          "id": "423",
          "name": "Azabu-juban",
          "lat": 35.656448,
          "lng": 139.73633
        },
        {
          "id": "424",
          "name": "Roppongi",
          "lat": 35.664106,
          "lng": 139.731354
        },
        {
          "id": "425",
          "name": "Aoyama-itchome",
          "lat": 35.673067,
          "lng": 139.723925
        },
        {
          "id": "426",
          "name": "Kokuritsu-kyogijo",
          "lat": 35.679896,
          "lng": 139.714667
        },
        {
          "id": "427",
          "name": "Yoyogi",
          "lat": 35.683505,
          "lng": 139.701603
        },
        {
          "id": "428",
          "name": "Shinjuku",
          "lat": 35.688462,
          "lng": 139.699019
        },
        {
          "id": "429",
          "name": "Tochomae",
          "lat": 35.690607,
          "lng": 139.692677
        },
        {
          "id": "430",
          "name": "Nishi-shinjuku-gochome",
          "lat": 35.689892,
          "lng": 139.684545
        },
        {
          "id": "431",
          "name": "Nakano-sakaue",
          "lat": 35.697887,
          "lng": 139.682899
        },
        {
          "id": "432",
          "name": "Higashi-nakano",
          "lat": 35.70716,
          "lng": 139.683112
        },
        {
          "id": "433",
          "name": "Nakai",
          "lat": 35.713935,
          "lng": 139.686296
        },
        {
          "id": "434",
          "name": "Ochiai-minami-nagasaki",
          "lat": 35.723435,
          "lng": 139.683389
        },
        {
          "id": "435",
          "name": "Shin-egota",
          "lat": 35.732579,
          "lng": 139.670498
        },
        {
          "id": "436",
          "name": "Nerima",
          "lat": 35.737411,
          "lng": 139.654762
        },
        {
          "id": "437",
          "name": "Toshimaen",
          "lat": 35.741711,
          "lng": 139.649116
        },
        {
          "id": "438",
          "name": "Nerima-kasugacho",
          "lat": 35.75141,
          "lng": 139.6403
        },
        {
          "id": "439",
          "name": "Hikarigaoka",
          "lat": 35.758527,
          "lng": 139.628901
        }
      ]
    },
    {
      "id": "F",
      "shortName": "F",
      "longName": "Fukutoshin Line",
      "color": "#9C5E31",
      "textColor": "#FFFFFF",
      "mode": 1,
      "operator": "Tokyo Metro",
      "stations": [
        {
          "id": "901",
          "name": "Wakoshi",
          "lat": 35.78835,
          "lng": 139.612865
        },
        {
          "id": "902",
          "name": "Chikatetsu-narimasu",
          "lat": 35.77674,
          "lng": 139.63117
        },
        {
          "id": "903",
          "name": "Chikatetsu-akatsuka",
          "lat": 35.76998,
          "lng": 139.644001
        },
        {
          "id": "904",
          "name": "Heiwadai",
          "lat": 35.757555,
          "lng": 139.6543
        },
        {
          "id": "905",
          "name": "Hikawadai",
          "lat": 35.74962,
          "lng": 139.66547
        },
        {
          "id": "906",
          "name": "Kotake-mukaihara",
          "lat": 35.743395,
          "lng": 139.67952
        },
        {
          "id": "907",
          "name": "Senkawa",
          "lat": 35.738175,
          "lng": 139.6894
        },
        {
          "id": "908",
          "name": "Kanamecho",
          "lat": 35.733215,
          "lng": 139.69848
        },
        {
          "id": "909",
          "name": "Ikebukuro",
          "lat": 35.730345,
          "lng": 139.71115
        },
        {
          "id": "910",
          "name": "Zoshigaya",
          "lat": 35.7202,
          "lng": 139.714715
        },
        {
          "id": "911",
          "name": "Nishi-waseda",
          "lat": 35.707806,
          "lng": 139.70912
        },
        {
          "id": "912",
          "name": "Higashi-shinjuku",
          "lat": 35.699829,
          "lng": 139.707846
        },
        {
          "id": "913",
          "name": "Shinjuku-sanchome",
          "lat": 35.690609,
          "lng": 139.704727
        },
        {
          "id": "914",
          "name": "Kita-sando",
          "lat": 35.678503,
          "lng": 139.705469
        },
        {
          "id": "915",
          "name": "Meiji-jingumae<Harajuku>",
          "lat": 35.668205,
          "lng": 139.70524
        },
        {
          "id": "916",
          "name": "Shibuya",
          "lat": 35.659092,
          "lng": 139.70257
        }
      ]
    },
    {
      "id": "G",
      "shortName": "G",
      "longName": "Ginza Line",
      "color": "#FF9500",
      "textColor": "#FFFFFF",
      "mode": 1,
      "operator": "Tokyo Metro",
      "stations": [
        {
          "id": "101",
          "name": "Shibuya",
          "lat": 35.659097,
          "lng": 139.702673
        },
        {
          "id": "102",
          "name": "Omote-sando",
          "lat": 35.665042,
          "lng": 139.712473
        },
        {
          "id": "103",
          "name": "Gaiemmae",
          "lat": 35.670375,
          "lng": 139.717825
        },
        {
          "id": "104",
          "name": "Aoyama-itchome",
          "lat": 35.67279,
          "lng": 139.724145
        },
        {
          "id": "105",
          "name": "Akasaka-mitsuke",
          "lat": 35.676845,
          "lng": 139.737347
        },
        {
          "id": "106",
          "name": "Tameike-sanno",
          "lat": 35.671511,
          "lng": 139.741943
        },
        {
          "id": "107",
          "name": "Toranomon",
          "lat": 35.67016,
          "lng": 139.75012
        },
        {
          "id": "108",
          "name": "Shimbashi",
          "lat": 35.667382,
          "lng": 139.758512
        },
        {
          "id": "109",
          "name": "Ginza",
          "lat": 35.6715,
          "lng": 139.765366
        },
        {
          "id": "110",
          "name": "Kyobashi",
          "lat": 35.676704,
          "lng": 139.77011
        },
        {
          "id": "111",
          "name": "Nihombashi",
          "lat": 35.681879,
          "lng": 139.773335
        },
        {
          "id": "112",
          "name": "Mitsukoshimae",
          "lat": 35.687173,
          "lng": 139.773582
        },
        {
          "id": "113",
          "name": "Kanda",
          "lat": 35.693715,
          "lng": 139.77089
        },
        {
          "id": "114",
          "name": "Suehirocho",
          "lat": 35.70278,
          "lng": 139.771762
        },
        {
          "id": "115",
          "name": "Ueno-hirokoji",
          "lat": 35.707765,
          "lng": 139.773011
        },
        {
          "id": "116",
          "name": "Ueno",
          "lat": 35.711835,
          "lng": 139.775625
        },
        {
          "id": "117",
          "name": "Inaricho",
          "lat": 35.711389,
          "lng": 139.78221
        },
        {
          "id": "118",
          "name": "Tawaramachi",
          "lat": 35.709917,
          "lng": 139.790306
        },
        {
          "id": "119",
          "name": "Asakusa",
          "lat": 35.710746,
          "lng": 139.797774
        }
      ]
    },
    {
      "id": "H",
      "shortName": "H",
      "longName": "Hibiya Line",
      "color": "#B5B5AC",
      "textColor": "#FFFFFF",
      "mode": 1,
      "operator": "Tokyo Metro",
      "stations": [
        {
          "id": "301",
          "name": "Naka-meguro",
          "lat": 35.644108,
          "lng": 139.698833
        },
        {
          "id": "302",
          "name": "Ebisu",
          "lat": 35.64704,
          "lng": 139.708701
        },
        {
          "id": "303",
          "name": "Hiro-o",
          "lat": 35.651499,
          "lng": 139.722209
        },
        {
          "id": "304",
          "name": "Roppongi",
          "lat": 35.6628,
          "lng": 139.731155
        },
        {
          "id": "305",
          "name": "Kamiyacho",
          "lat": 35.662625,
          "lng": 139.744725
        },
        {
          "id": "306",
          "name": "Toranomon-hills",
          "lat": 35.667309,
          "lng": 139.747738
        },
        {
          "id": "307",
          "name": "Kasumigaseki",
          "lat": 35.673875,
          "lng": 139.75106
        },
        {
          "id": "308",
          "name": "Hibiya",
          "lat": 35.674271,
          "lng": 139.7606
        },
        {
          "id": "309",
          "name": "Ginza",
          "lat": 35.671983,
          "lng": 139.764007
        },
        {
          "id": "310",
          "name": "Higashi-ginza",
          "lat": 35.669129,
          "lng": 139.767633
        },
        {
          "id": "311",
          "name": "Tsukiji",
          "lat": 35.667928,
          "lng": 139.772473
        },
        {
          "id": "312",
          "name": "Hatchobori",
          "lat": 35.675368,
          "lng": 139.777334
        },
        {
          "id": "313",
          "name": "Kayabacho",
          "lat": 35.679078,
          "lng": 139.779619
        },
        {
          "id": "314",
          "name": "Ningyocho",
          "lat": 35.686259,
          "lng": 139.782339
        },
        {
          "id": "315",
          "name": "Kodemmacho",
          "lat": 35.690423,
          "lng": 139.778758
        },
        {
          "id": "316",
          "name": "Akihabara",
          "lat": 35.697965,
          "lng": 139.775529
        },
        {
          "id": "317",
          "name": "Naka-okachimachi",
          "lat": 35.706655,
          "lng": 139.77619
        },
        {
          "id": "318",
          "name": "Ueno",
          "lat": 35.711558,
          "lng": 139.777061
        },
        {
          "id": "319",
          "name": "Iriya",
          "lat": 35.720565,
          "lng": 139.784466
        },
        {
          "id": "320",
          "name": "Minowa",
          "lat": 35.729285,
          "lng": 139.791165
        },
        {
          "id": "321",
          "name": "Minami-senju",
          "lat": 35.73231,
          "lng": 139.79878
        },
        {
          "id": "322",
          "name": "Kita-senju",
          "lat": 35.749904,
          "lng": 139.805591
        }
      ]
    },
    {
      "id": "I",
      "shortName": "I",
      "longName": "Mita Line",
      "color": "#0067B0",
      "textColor": "#FFFFFF",
      "mode": 1,
      "operator": "Toei Subway",
      "stations": [
        {
          "id": "201",
          "name": "Meguro",
          "lat": 35.633635,
          "lng": 139.715444
        },
        {
          "id": "202",
          "name": "Shirokanedai",
          "lat": 35.637851,
          "lng": 139.726007
        },
        {
          "id": "203",
          "name": "Shirokane-takanawa",
          "lat": 35.643283,
          "lng": 139.734344
        },
        {
          "id": "204",
          "name": "Mita",
          "lat": 35.64865,
          "lng": 139.748998
        },
        {
          "id": "205",
          "name": "Shibakoen",
          "lat": 35.654186,
          "lng": 139.74985
        },
        {
          "id": "206",
          "name": "Onarimon",
          "lat": 35.660774,
          "lng": 139.751366
        },
        {
          "id": "207",
          "name": "Uchisaiwaicho",
          "lat": 35.669344,
          "lng": 139.75533
        },
        {
          "id": "208",
          "name": "Hibiya",
          "lat": 35.676585,
          "lng": 139.760274
        },
        {
          "id": "209",
          "name": "Otemachi",
          "lat": 35.684093,
          "lng": 139.762798
        },
        {
          "id": "210",
          "name": "Jimbocho",
          "lat": 35.695331,
          "lng": 139.758213
        },
        {
          "id": "211",
          "name": "Suidobashi",
          "lat": 35.70346,
          "lng": 139.755147
        },
        {
          "id": "212",
          "name": "Kasuga",
          "lat": 35.709532,
          "lng": 139.753287
        },
        {
          "id": "213",
          "name": "Hakusan",
          "lat": 35.721682,
          "lng": 139.752134
        },
        {
          "id": "214",
          "name": "Sengoku",
          "lat": 35.727772,
          "lng": 139.744984
        },
        {
          "id": "215",
          "name": "Sugamo",
          "lat": 35.733793,
          "lng": 139.738154
        },
        {
          "id": "216",
          "name": "Nishi-sugamo",
          "lat": 35.743568,
          "lng": 139.728703
        },
        {
          "id": "217",
          "name": "Shin-itabashi",
          "lat": 35.748772,
          "lng": 139.719808
        },
        {
          "id": "218",
          "name": "Itabashi-kuyakushomae",
          "lat": 35.751372,
          "lng": 139.71012
        },
        {
          "id": "219",
          "name": "Itabashihoncho",
          "lat": 35.761309,
          "lng": 139.705544
        },
        {
          "id": "220",
          "name": "Motohasunuma",
          "lat": 35.768566,
          "lng": 139.70241
        },
        {
          "id": "221",
          "name": "Shimura-sakaue",
          "lat": 35.776082,
          "lng": 139.695097
        },
        {
          "id": "222",
          "name": "Shimura-sanchome",
          "lat": 35.777468,
          "lng": 139.685751
        },
        {
          "id": "223",
          "name": "Hasune",
          "lat": 35.784262,
          "lng": 139.678947
        },
        {
          "id": "224",
          "name": "Nishidai",
          "lat": 35.787074,
          "lng": 139.672867
        },
        {
          "id": "225",
          "name": "Takashimadaira",
          "lat": 35.788908,
          "lng": 139.661361
        },
        {
          "id": "226",
          "name": "Shin-takashimadaira",
          "lat": 35.790289,
          "lng": 139.65405
        },
        {
          "id": "227",
          "name": "Nishi-takashimadaira",
          "lat": 35.791965,
          "lng": 139.645421
        }
      ]
    },
    {
      "id": "M",
      "shortName": "M",
      "longName": "Marunouchi Line",
      "color": "#F62E36",
      "textColor": "#FFFFFF",
      "mode": 1,
      "operator": "Tokyo Metro",
      "stations": [
        {
          "id": "201",
          "name": "Ogikubo",
          "lat": 35.704175,
          "lng": 139.61976
        },
        {
          "id": "202",
          "name": "Minami-asagaya",
          "lat": 35.699455,
          "lng": 139.635575
        },
        {
          "id": "203",
          "name": "Shin-koenji",
          "lat": 35.69786,
          "lng": 139.64851
        },
        {
          "id": "204",
          "name": "Higashi-koenji",
          "lat": 35.697965,
          "lng": 139.658295
        },
        {
          "id": "205",
          "name": "Shin-nakano",
          "lat": 35.697475,
          "lng": 139.66951
        },
        {
          "id": "209",
          "name": "Nakano-sakaue",
          "lat": 35.697085,
          "lng": 139.682205
        },
        {
          "id": "210",
          "name": "Nishi-shinjuku",
          "lat": 35.694515,
          "lng": 139.69256
        },
        {
          "id": "211",
          "name": "Shinjuku",
          "lat": 35.692452,
          "lng": 139.700548
        },
        {
          "id": "212",
          "name": "Shinjuku-sanchome",
          "lat": 35.69118,
          "lng": 139.70421
        },
        {
          "id": "213",
          "name": "Shinjuku-gyoemmae",
          "lat": 35.688525,
          "lng": 139.710915
        },
        {
          "id": "214",
          "name": "Yotsuya-sanchome",
          "lat": 35.687835,
          "lng": 139.719325
        },
        {
          "id": "215",
          "name": "Yotsuya",
          "lat": 35.684197,
          "lng": 139.730047
        },
        {
          "id": "216",
          "name": "Akasaka-mitsuke",
          "lat": 35.676845,
          "lng": 139.737347
        },
        {
          "id": "217",
          "name": "Kokkai-gijidomae",
          "lat": 35.674926,
          "lng": 139.745473
        },
        {
          "id": "218",
          "name": "Kasumigaseki",
          "lat": 35.674235,
          "lng": 139.75268
        },
        {
          "id": "219",
          "name": "Ginza",
          "lat": 35.673159,
          "lng": 139.763876
        },
        {
          "id": "220",
          "name": "Tokyo",
          "lat": 35.681935,
          "lng": 139.7648
        },
        {
          "id": "221",
          "name": "Otemachi",
          "lat": 35.686875,
          "lng": 139.766203
        },
        {
          "id": "222",
          "name": "Awajicho",
          "lat": 35.69487,
          "lng": 139.767455
        },
        {
          "id": "223",
          "name": "Ochanomizu",
          "lat": 35.70043,
          "lng": 139.764405
        },
        {
          "id": "224",
          "name": "Hongo-sanchome",
          "lat": 35.706726,
          "lng": 139.760154
        },
        {
          "id": "225",
          "name": "Korakuen",
          "lat": 35.707307,
          "lng": 139.750861
        },
        {
          "id": "226",
          "name": "Myogadani",
          "lat": 35.7172,
          "lng": 139.736895
        },
        {
          "id": "227",
          "name": "Shin-otsuka",
          "lat": 35.72613,
          "lng": 139.729354
        },
        {
          "id": "228",
          "name": "Ikebukuro",
          "lat": 35.730345,
          "lng": 139.71115
        }
      ]
    },
    {
      "id": "N",
      "shortName": "N",
      "longName": "Namboku Line",
      "color": "#00AC9B",
      "textColor": "#FFFFFF",
      "mode": 1,
      "operator": "Tokyo Metro",
      "stations": [
        {
          "id": "801",
          "name": "Meguro",
          "lat": 35.632485,
          "lng": 139.71566
        },
        {
          "id": "802",
          "name": "Shirokanedai",
          "lat": 35.63777,
          "lng": 139.72586
        },
        {
          "id": "803",
          "name": "Shirokane-takanawa",
          "lat": 35.643145,
          "lng": 139.734285
        },
        {
          "id": "804",
          "name": "Azabu-juban",
          "lat": 35.65481,
          "lng": 139.737045
        },
        {
          "id": "805",
          "name": "Roppongi-itchome",
          "lat": 35.665075,
          "lng": 139.7389
        },
        {
          "id": "806",
          "name": "Tameike-sanno",
          "lat": 35.673091,
          "lng": 139.741294
        },
        {
          "id": "807",
          "name": "Nagatacho",
          "lat": 35.678338,
          "lng": 139.739288
        },
        {
          "id": "808",
          "name": "Yotsuya",
          "lat": 35.686082,
          "lng": 139.72968
        },
        {
          "id": "809",
          "name": "Ichigaya",
          "lat": 35.692894,
          "lng": 139.736324
        },
        {
          "id": "810",
          "name": "Iidabashi",
          "lat": 35.701532,
          "lng": 139.743716
        },
        {
          "id": "811",
          "name": "Korakuen",
          "lat": 35.70839,
          "lng": 139.751786
        },
        {
          "id": "812",
          "name": "Todaimae",
          "lat": 35.718014,
          "lng": 139.75788
        },
        {
          "id": "813",
          "name": "Hon-komagome",
          "lat": 35.724365,
          "lng": 139.753812
        },
        {
          "id": "814",
          "name": "Komagome",
          "lat": 35.735913,
          "lng": 139.746909
        },
        {
          "id": "815",
          "name": "Nishigahara",
          "lat": 35.745945,
          "lng": 139.74226
        },
        {
          "id": "816",
          "name": "Oji",
          "lat": 35.75447,
          "lng": 139.737362
        },
        {
          "id": "817",
          "name": "Oji-kamiya",
          "lat": 35.765292,
          "lng": 139.735641
        },
        {
          "id": "818",
          "name": "Shimo",
          "lat": 35.778025,
          "lng": 139.7325
        },
        {
          "id": "819",
          "name": "Akabane-iwabuchi",
          "lat": 35.783355,
          "lng": 139.72211
        }
      ]
    },
    {
      "id": "S",
      "shortName": "S",
      "longName": "Shinjuku Line",
      "color": "#9FB01C",
      "textColor": "#FFFFFF",
      "mode": 1,
      "operator": "Toei Subway",
      "stations": [
        {
          "id": "301",
          "name": "Shinjuku",
          "lat": 35.688433,
          "lng": 139.698418
        },
        {
          "id": "302",
          "name": "Shinjuku-sanchome",
          "lat": 35.691016,
          "lng": 139.706794
        },
        {
          "id": "303",
          "name": "Akebonobashi",
          "lat": 35.692402,
          "lng": 139.722317
        },
        {
          "id": "304",
          "name": "Ichigaya",
          "lat": 35.69153,
          "lng": 139.737588
        },
        {
          "id": "305",
          "name": "Kudanshita",
          "lat": 35.695546,
          "lng": 139.751738
        },
        {
          "id": "306",
          "name": "Jimbocho",
          "lat": 35.695972,
          "lng": 139.757981
        },
        {
          "id": "307",
          "name": "Ogawamachi",
          "lat": 35.695005,
          "lng": 139.766449
        },
        {
          "id": "308",
          "name": "Iwamotocho",
          "lat": 35.695607,
          "lng": 139.775115
        },
        {
          "id": "309",
          "name": "Bakuro-yokoyama",
          "lat": 35.69193,
          "lng": 139.783006
        },
        {
          "id": "310",
          "name": "Hamacho",
          "lat": 35.688601,
          "lng": 139.787725
        },
        {
          "id": "311",
          "name": "Morishita",
          "lat": 35.687982,
          "lng": 139.796623
        },
        {
          "id": "312",
          "name": "Kikukawa",
          "lat": 35.688399,
          "lng": 139.806057
        },
        {
          "id": "313",
          "name": "Sumiyoshi",
          "lat": 35.68904,
          "lng": 139.815723
        },
        {
          "id": "314",
          "name": "Nishi-ojima",
          "lat": 35.689391,
          "lng": 139.826231
        },
        {
          "id": "315",
          "name": "Ojima",
          "lat": 35.689752,
          "lng": 139.834705
        },
        {
          "id": "316",
          "name": "Higashi-ojima",
          "lat": 35.689959,
          "lng": 139.847255
        },
        {
          "id": "317",
          "name": "Funabori",
          "lat": 35.68376,
          "lng": 139.863955
        },
        {
          "id": "318",
          "name": "Ichinoe",
          "lat": 35.685987,
          "lng": 139.882586
        },
        {
          "id": "319",
          "name": "Mizue",
          "lat": 35.69351,
          "lng": 139.8977
        },
        {
          "id": "320",
          "name": "Shinozaki",
          "lat": 35.706022,
          "lng": 139.903796
        },
        {
          "id": "321",
          "name": "Motoyawata",
          "lat": 35.722819,
          "lng": 139.926613
        }
      ]
    },
    {
      "id": "T",
      "shortName": "T",
      "longName": "Tozai Line",
      "color": "#009BBF",
      "textColor": "#FFFFFF",
      "mode": 1,
      "operator": "Tokyo Metro",
      "stations": [
        {
          "id": "401",
          "name": "Nakano",
          "lat": 35.70574,
          "lng": 139.665605
        },
        {
          "id": "402",
          "name": "Ochiai",
          "lat": 35.710635,
          "lng": 139.685965
        },
        {
          "id": "403",
          "name": "Takadanobaba",
          "lat": 35.71328,
          "lng": 139.705045
        },
        {
          "id": "404",
          "name": "Waseda",
          "lat": 35.70568,
          "lng": 139.72219
        },
        {
          "id": "405",
          "name": "Kagurazaka",
          "lat": 35.703865,
          "lng": 139.73452
        },
        {
          "id": "406",
          "name": "Iidabashi",
          "lat": 35.701403,
          "lng": 139.746521
        },
        {
          "id": "407",
          "name": "Kudanshita",
          "lat": 35.696091,
          "lng": 139.751265
        },
        {
          "id": "408",
          "name": "Takebashi",
          "lat": 35.69044,
          "lng": 139.75767
        },
        {
          "id": "409",
          "name": "Otemachi",
          "lat": 35.684697,
          "lng": 139.76603
        },
        {
          "id": "410",
          "name": "Nihombashi",
          "lat": 35.682376,
          "lng": 139.774101
        },
        {
          "id": "411",
          "name": "Kayabacho",
          "lat": 35.680346,
          "lng": 139.77927
        },
        {
          "id": "412",
          "name": "Monzen-nakacho",
          "lat": 35.671892,
          "lng": 139.796099
        },
        {
          "id": "413",
          "name": "Kiba",
          "lat": 35.669356,
          "lng": 139.807115
        },
        {
          "id": "414",
          "name": "Toyocho",
          "lat": 35.66959,
          "lng": 139.81768
        },
        {
          "id": "415",
          "name": "Minami-sunamachi",
          "lat": 35.668415,
          "lng": 139.831695
        },
        {
          "id": "416",
          "name": "Nishi-kasai",
          "lat": 35.664562,
          "lng": 139.8596
        },
        {
          "id": "417",
          "name": "Kasai",
          "lat": 35.663616,
          "lng": 139.87253
        },
        {
          "id": "418",
          "name": "Urayasu",
          "lat": 35.665903,
          "lng": 139.893236
        },
        {
          "id": "419",
          "name": "Minami-gyotoku",
          "lat": 35.672729,
          "lng": 139.902276
        },
        {
          "id": "420",
          "name": "Gyotoku",
          "lat": 35.68262,
          "lng": 139.914185
        },
        {
          "id": "421",
          "name": "Myoden",
          "lat": 35.691014,
          "lng": 139.924286
        },
        {
          "id": "422",
          "name": "Baraki-nakayama",
          "lat": 35.7033,
          "lng": 139.941915
        },
        {
          "id": "423",
          "name": "Nishi-funabashi",
          "lat": 35.707174,
          "lng": 139.958767
        }
      ]
    },
    {
      "id": "Y",
      "shortName": "Y",
      "longName": "Yurakucho Line",
      "color": "#C1A470",
      "textColor": "#FFFFFF",
      "mode": 1,
      "operator": "Tokyo Metro",
      "stations": [
        {
          "id": "601",
          "name": "Wakoshi",
          "lat": 35.78835,
          "lng": 139.612865
        },
        {
          "id": "602",
          "name": "Chikatetsu-narimasu",
          "lat": 35.77674,
          "lng": 139.63117
        },
        {
          "id": "603",
          "name": "Chikatetsu-akatsuka",
          "lat": 35.769981,
          "lng": 139.644
        },
        {
          "id": "604",
          "name": "Heiwadai",
          "lat": 35.757555,
          "lng": 139.6543
        },
        {
          "id": "605",
          "name": "Hikawadai",
          "lat": 35.74962,
          "lng": 139.66547
        },
        {
          "id": "606",
          "name": "Kotake-mukaihara",
          "lat": 35.743395,
          "lng": 139.67952
        },
        {
          "id": "607",
          "name": "Senkawa",
          "lat": 35.738175,
          "lng": 139.6894
        },
        {
          "id": "608",
          "name": "Kanamecho",
          "lat": 35.733215,
          "lng": 139.69848
        },
        {
          "id": "609",
          "name": "Ikebukuro",
          "lat": 35.729185,
          "lng": 139.710885
        },
        {
          "id": "610",
          "name": "Higashi-ikebukuro",
          "lat": 35.72595,
          "lng": 139.718865
        },
        {
          "id": "611",
          "name": "Gokokuji",
          "lat": 35.71918,
          "lng": 139.72745
        },
        {
          "id": "612",
          "name": "Edogawabashi",
          "lat": 35.709295,
          "lng": 139.73413
        },
        {
          "id": "613",
          "name": "Iidabashi",
          "lat": 35.701342,
          "lng": 139.743207
        },
        {
          "id": "614",
          "name": "Ichigaya",
          "lat": 35.692576,
          "lng": 139.736891
        },
        {
          "id": "615",
          "name": "Kojimachi",
          "lat": 35.684785,
          "lng": 139.73735
        },
        {
          "id": "616",
          "name": "Nagatacho",
          "lat": 35.677895,
          "lng": 139.741773
        },
        {
          "id": "617",
          "name": "Sakuradamon",
          "lat": 35.677459,
          "lng": 139.751886
        },
        {
          "id": "618",
          "name": "Yurakucho",
          "lat": 35.675973,
          "lng": 139.762286
        },
        {
          "id": "619",
          "name": "Ginza-itchome",
          "lat": 35.674519,
          "lng": 139.766786
        },
        {
          "id": "620",
          "name": "Shintomicho",
          "lat": 35.670529,
          "lng": 139.773594
        },
        {
          "id": "621",
          "name": "Tsukishima",
          "lat": 35.664711,
          "lng": 139.784405
        },
        {
          "id": "622",
          "name": "Toyosu",
          "lat": 35.655153,
          "lng": 139.795994
        },
        {
          "id": "623",
          "name": "Tatsumi",
          "lat": 35.645775,
          "lng": 139.81033
        },
        {
          "id": "624",
          "name": "Shin-kiba",
          "lat": 35.64578,
          "lng": 139.826605
        }
      ]
    },
    {
      "id": "Z",
      "shortName": "Z",
      "longName": "Hanzomon Line",
      "color": "#8F76D6",
      "textColor": "#FFFFFF",
      "mode": 1,
      "operator": "Tokyo Metro",
      "stations": [
        {
          "id": "701",
          "name": "Shibuya",
          "lat": 35.65945,
          "lng": 139.701035
        },
        {
          "id": "702",
          "name": "Omote-sando",
          "lat": 35.665143,
          "lng": 139.712383
        },
        {
          "id": "703",
          "name": "Aoyama-itchome",
          "lat": 35.672956,
          "lng": 139.724075
        },
        {
          "id": "704",
          "name": "Nagatacho",
          "lat": 35.678407,
          "lng": 139.738865
        },
        {
          "id": "705",
          "name": "Hanzomon",
          "lat": 35.68538,
          "lng": 139.741695
        },
        {
          "id": "706",
          "name": "Kudanshita",
          "lat": 35.695501,
          "lng": 139.751117
        },
        {
          "id": "707",
          "name": "Jimbocho",
          "lat": 35.696021,
          "lng": 139.75756
        },
        {
          "id": "708",
          "name": "Otemachi",
          "lat": 35.686745,
          "lng": 139.764905
        },
        {
          "id": "709",
          "name": "Mitsukoshimae",
          "lat": 35.684928,
          "lng": 139.77308
        },
        {
          "id": "710",
          "name": "Suitengumae",
          "lat": 35.683,
          "lng": 139.785171
        },
        {
          "id": "711",
          "name": "Kiyosumi-shirakawa",
          "lat": 35.682119,
          "lng": 139.799841
        },
        {
          "id": "712",
          "name": "Sumiyoshi",
          "lat": 35.688704,
          "lng": 139.815667
        },
        {
          "id": "713",
          "name": "Kinshicho",
          "lat": 35.697441,
          "lng": 139.814957
        },
        {
          "id": "714",
          "name": "Oshiage<SKYTREE>",
          "lat": 35.708467,
          "lng": 139.813735
        }
      ]
    }
  ]
}
